[{"gps":{"lat":"43.833333","lng":"6.55"},"city":"La Garde","count":2},{"gps":{"lat":54.006504,"lng":13.20927},"city":"Sassen-Trantow","count":1},{"gps":{"lat":53.361716,"lng":13.063},"city":"Neustrelitz","count":1},{"gps":{"lat":40.090787,"lng":9.036748},"city":"Gonnosfanadiga","count":1},{"gps":{"lat":38.386681,"lng":16.107418},"city":"San Giorgio Morgeto","count":1},{"gps":{"lat":43.458654,"lng":11.13892},"city":"Marciana Marina","count":1},{"gps":{"lat":43.252551,"lng":12.950568},"city":"Esanatoglia","count":1},{"gps":{"lat":45.060735,"lng":7.923549},"city":"Mazzè","count":1},{"gps":{"lat":42.245927,"lng":12.692077},"city":"Montopoli di Sabina","count":1},{"gps":{"lat":43.458654,"lng":11.13892},"city":"Avaglio","count":1},{"gps":{"lat":45.952516,"lng":12.842521},"city":"Casarsa della Delizia","count":1},{"gps":{"lat":37.587794,"lng":14.155048},"city":"Carini","count":1},{"gps":{"lat":41.64313,"lng":12.915729},"city":"Caira","count":1},{"gps":{"lat":43.458654,"lng":11.13892},"city":"Reggello","count":1},{"gps":{"lat":44.477762,"lng":8.70263},"city":"Sciarborasca","count":1},{"gps":{"lat":45.6209,"lng":9.768893},"city":"Alfianello","count":1},{"gps":{"lat":45.6209,"lng":9.768893},"city":"Bovisio","count":1},{"gps":{"lat":44.032126,"lng":8.047149},"city":"Casanova Lerrone","count":1},{"gps":{"lat":45.6209,"lng":9.768893},"city":"Melzo","count":4},{"gps":{"lat":45.6209,"lng":9.768893},"city":"Boltiere","count":1},{"gps":{"lat":44.058793,"lng":10.649912},"city":"Bagno di Gavorrano","count":2},{"gps":{"lat":43.458654,"lng":11.13892},"city":"Volterra","count":1},{"gps":{"lat":40.984266,"lng":16.621036},"city":"Arnesano","count":1},{"gps":{"lat":37.587794,"lng":14.155048},"city":"Casa Santa","count":2},{"gps":{"lat":44.525696,"lng":11.039437},"city":"Bibbiano","count":1},{"gps":{"lat":41.829051,"lng":14.710291},"city":"Castelmauro","count":1},{"gps":{"lat":45.060735,"lng":7.923549},"city":"Montechiaro d'Acqui","count":1},{"gps":{"lat":40.090787,"lng":9.036748},"city":"Li punti","count":2},{"gps":{"lat":45.060735,"lng":7.923549},"city":"Pessione","count":1},{"gps":{"lat":45.060735,"lng":7.923549},"city":"Dagnente","count":1},{"gps":{"lat":37.587794,"lng":14.155048},"city":"Joppolo Giancaxio","count":1},{"gps":{"lat":45.060735,"lng":7.923549},"city":"Carignano","count":1},{"gps":{"lat":45.060735,"lng":7.923549},"city":"Acqui Terme","count":2},{"gps":{"lat":45.060735,"lng":7.923549},"city":"Nole","count":1},{"gps":{"lat":45.060735,"lng":7.923549},"city":"Zimone","count":2},{"gps":{"lat":38.307302,"lng":16.320627},"city":"Marina di Schiavonea","count":1},{"gps":{"lat":39.359893,"lng":16.039588},"city":"Paola","count":1},{"gps":{"lat":39.241693,"lng":16.341796},"city":"Aprigliano","count":1},{"gps":{"lat":44.525696,"lng":11.039437},"city":"Cervia Milano Marittima","count":1},{"gps":{"lat":44.525696,"lng":11.039437},"city":"Castellarano","count":1},{"gps":{"lat":46.441472,"lng":11.282121},"city":"Albes","count":1},{"gps":{"lat":46.441472,"lng":11.282121},"city":"Mezzolombardo","count":2},{"gps":{"lat":46.441472,"lng":11.282121},"city":"Cles","count":4},{"gps":{"lat":46.441472,"lng":11.282121},"city":"Mezzocorona","count":3},{"gps":{"lat":40.961323,"lng":15.814863},"city":"Venusio","count":1},{"gps":{"lat":40.925722,"lng":15.669961},"city":"Rionero in Vulture","count":1},{"gps":{"lat":40.749622,"lng":16.235775},"city":"Irsina","count":1},{"gps":{"lat":42.563947,"lng":14.091349},"city":"Silvi","count":1},{"gps":{"lat":42.204732,"lng":13.519296},"city":"Rocca di Mezzo","count":1},{"gps":{"lat":42.043338,"lng":14.727225},"city":"San Nicolò a Tordino","count":1},{"gps":{"lat":45.6209,"lng":9.768893},"city":"Inverigo","count":1},{"gps":{"lat":45.6209,"lng":9.768893},"city":"Introbio","count":1},{"gps":{"lat":45.6209,"lng":9.768893},"city":"Medole","count":1},{"gps":{"lat":45.6209,"lng":9.768893},"city":"Dalmine","count":1},{"gps":{"lat":41.118461,"lng":14.931338},"city":"Apice","count":1},{"gps":{"lat":40.860672,"lng":14.843984},"city":"Galdo degli alburni","count":1},{"gps":{"lat":43.458654,"lng":11.13892},"city":"Bientina","count":3},{"gps":{"lat":44.20045,"lng":10.176791},"city":"Casellina","count":2},{"gps":{"lat":44.160732,"lng":8.309152},"city":"Borgo fornari","count":1},{"gps":{"lat":43.928221,"lng":7.675143},"city":"Castel Vittorio","count":1},{"gps":{"lat":41.606727,"lng":14.139489},"city":"Fornelli","count":1},{"gps":{"lat":41.781131,"lng":14.551425},"city":"Trivento","count":1},{"gps":{"lat":41.712833,"lng":14.990635},"city":"Santa Croce di Magliano","count":1},{"gps":{"lat":41.60749,"lng":14.279204},"city":"Pesche","count":3},{"gps":{"lat":37.822259,"lng":15.267488},"city":"Giardini-Naxos","count":1},{"gps":{"lat":37.587794,"lng":14.155048},"city":"Pozzallo","count":1},{"gps":{"lat":37.587794,"lng":14.155048},"city":"Palagonia","count":1},{"gps":{"lat":43.573766,"lng":13.425686},"city":"Cesano di Senigallia","count":1},{"gps":{"lat":42.820247,"lng":13.634289},"city":"Folignano","count":2},{"gps":{"lat":43.415463,"lng":12.980159},"city":"Musone","count":3},{"gps":{"lat":42.874841,"lng":12.044386},"city":"Fabro Scalo","count":2},{"gps":{"lat":42.905938,"lng":12.335859},"city":"Marsciano","count":1},{"gps":{"lat":40.984266,"lng":16.621036},"city":"Rutigliano","count":2},{"gps":{"lat":40.996119,"lng":17.219586},"city":"Palagianello","count":2},{"gps":{"lat":40.984266,"lng":16.621036},"city":"Mottola","count":1},{"gps":{"lat":40.984266,"lng":16.621036},"city":"Acquarica del Capo","count":1},{"gps":{"lat":41.960922,"lng":12.798884},"city":"Tivoli","count":5},{"gps":{"lat":41.554919,"lng":13.603407},"city":"Colfelice","count":1},{"gps":{"lat":40.090787,"lng":9.036748},"city":"Valledoria","count":1},{"gps":{"lat":42.102554,"lng":13.814304},"city":"Raiano","count":1},{"gps":{"lat":46.530815,"lng":13.018207},"city":"Palse","count":1},{"gps":{"lat":46.236326,"lng":13.152823},"city":"Artegna","count":1},{"gps":{"lat":46.151042,"lng":13.055904},"city":"Gorgo","count":1},{"gps":{"lat":50.641949,"lng":4.659539},"city":"Saint-Gilles","count":4},{"gps":{"lat":50.641949,"lng":4.659539},"city":"Molenbeek-Saint-Jean","count":1},{"gps":{"lat":43.458654,"lng":11.13892},"city":"Camigliano Santa gemma","count":2},{"gps":{"lat":44.312154,"lng":9.341706},"city":"Lavagna","count":5},{"gps":{"lat":45.902278,"lng":8.823331},"city":"Villasanta","count":2},{"gps":{"lat":44.525696,"lng":11.039437},"city":"Vigarano Pieve","count":1},{"gps":{"lat":44.525696,"lng":11.039437},"city":"Molinella","count":2},{"gps":{"lat":44.525696,"lng":11.039437},"city":"Caselle","count":1},{"gps":{"lat":44.735243,"lng":10.786453},"city":"San Martino in Rio","count":1},{"gps":{"lat":41.324946,"lng":14.441733},"city":"Curti","count":2},{"gps":{"lat":40.815911,"lng":14.576538},"city":"Striano","count":1},{"gps":{"lat":46.441472,"lng":11.282121},"city":"Caltron","count":1},{"gps":{"lat":45.906417,"lng":13.18533},"city":"Castions di Strada","count":1},{"gps":{"lat":41.185015,"lng":14.056722},"city":"Francolise","count":1},{"gps":{"lat":40.74156,"lng":14.671504},"city":"Nocera Superiore","count":2},{"gps":{"lat":44.525696,"lng":11.039437},"city":"Caorso","count":1},{"gps":{"lat":44.525696,"lng":11.039437},"city":"Villa Motta","count":1},{"gps":{"lat":38.779485,"lng":16.512205},"city":"Squillace","count":1},{"gps":{"lat":45.6209,"lng":9.768893},"city":"Arcore","count":4},{"gps":{"lat":45.6209,"lng":9.768893},"city":"Seriate","count":5},{"gps":{"lat":50.154554,"lng":5.399211},"city":"Villers-le-Gambon","count":1},{"gps":{"lat":50.154554,"lng":5.399211},"city":"Estinnes","count":1},{"gps":{"lat":50.154554,"lng":5.399211},"city":"Waterloo","count":2},{"gps":{"lat":43.162552,"lng":13.245376},"city":"Belforte del Chienti","count":1},{"gps":{"lat":43.445356,"lng":13.019266},"city":"Serra San Quirico","count":1},{"gps":{"lat":45.6209,"lng":9.768893},"city":"Muggiò","count":2},{"gps":{"lat":50.154554,"lng":5.399211},"city":"Aiseau","count":1},{"gps":{"lat":50.592496,"lng":4.09712},"city":"Soignies","count":1},{"gps":{"lat":45.6209,"lng":9.768893},"city":"Alzano Lombardo","count":1},{"gps":{"lat":42.347942,"lng":14.318111},"city":"Tollo","count":1},{"gps":{"lat":50.154554,"lng":5.399211},"city":"Ittre","count":1},{"gps":{"lat":50.154554,"lng":5.399211},"city":"Messancy","count":1},{"gps":{"lat":50.154554,"lng":5.399211},"city":"Tubize","count":1},{"gps":{"lat":43.458654,"lng":11.13892},"city":"Galleno","count":1},{"gps":{"lat":42.063128,"lng":13.339194},"city":"Scurcola Marsicana","count":1},{"gps":{"lat":43.848864,"lng":12.787955},"city":"Montelabbate","count":3},{"gps":{"lat":43.543562,"lng":13.389473},"city":"Agugliano","count":3},{"gps":{"lat":43.435082,"lng":13.663008},"city":"Porto Recanati","count":2},{"gps":{"lat":43.803364,"lng":12.443415},"city":"Macerata","count":20},{"gps":{"lat":43.690797,"lng":12.812612},"city":"Fossombrone","count":3},{"gps":{"lat":45.060735,"lng":7.923549},"city":"Rivarossa","count":1},{"gps":{"lat":45.060735,"lng":7.923549},"city":"Borgo salsasio","count":1},{"gps":{"lat":46.441472,"lng":11.282121},"city":"Nogaredo","count":1},{"gps":{"lat":45.6209,"lng":9.768893},"city":"Cantù","count":2},{"gps":{"lat":45.6209,"lng":9.768893},"city":"Opera","count":3},{"gps":{"lat":40.190702,"lng":15.057156},"city":"Pollica","count":1},{"gps":{"lat":40.090787,"lng":9.036748},"city":"San Giovanni","count":1},{"gps":{"lat":41.011412,"lng":14.124825},"city":"Casal di Principe","count":1},{"gps":{"lat":40.617762,"lng":15.057449},"city":"Eboli","count":10},{"gps":{"lat":41.06972,"lng":15.058945},"city":"Grottaminarda","count":1},{"gps":{"lat":45.060735,"lng":7.923549},"city":"Nizza Monferrato","count":1},{"gps":{"lat":40.984266,"lng":16.621036},"city":"Carosino","count":2},{"gps":{"lat":43.92784,"lng":7.844187},"city":"Montale","count":5},{"gps":{"lat":43.458654,"lng":11.13892},"city":"San Piero","count":1},{"gps":{"lat":45.060735,"lng":7.923549},"city":"Leinì","count":1},{"gps":{"lat":45.788031,"lng":8.346847},"city":"Madonna dell'Olmo","count":1},{"gps":{"lat":45.6209,"lng":9.768893},"city":"Cesano Maderno","count":3},{"gps":{"lat":45.6209,"lng":9.768893},"city":"Limbiate","count":3},{"gps":{"lat":42.098766,"lng":11.798592},"city":"Civitavecchia","count":2},{"gps":{"lat":45.6209,"lng":9.768893},"city":"Capriano","count":2},{"gps":{"lat":45.6209,"lng":9.768893},"city":"Ponte Lambro","count":2},{"gps":{"lat":45.6209,"lng":9.768893},"city":"Torbole Casaglia","count":2},{"gps":{"lat":46.441472,"lng":11.282121},"city":"Fornace","count":2},{"gps":{"lat":43.458654,"lng":11.13892},"city":"San Piero a Sieve","count":1},{"gps":{"lat":43.458654,"lng":11.13892},"city":"Saltocchio","count":2},{"gps":{"lat":42.229634,"lng":13.605797},"city":"Fontecchio","count":1},{"gps":{"lat":42.885144,"lng":13.915535},"city":"Martinsicuro","count":4},{"gps":{"lat":40.090787,"lng":9.036748},"city":"Arzachena","count":3},{"gps":{"lat":45.730099,"lng":7.387426},"city":"Arpuilles","count":3},{"gps":{"lat":45.730099,"lng":7.387426},"city":"Avise","count":2},{"gps":{"lat":45.823596,"lng":7.565414},"city":"Torgnon","count":2},{"gps":{"lat":45.668293,"lng":7.690265},"city":"Verrès","count":2},{"gps":{"lat":45.730099,"lng":7.387426},"city":"Introd","count":1},{"gps":{"lat":45.6209,"lng":9.768893},"city":"Induno Olona","count":2},{"gps":{"lat":37.587794,"lng":14.155048},"city":"Villafranca Tirrena","count":1},{"gps":{"lat":45.6209,"lng":9.768893},"city":"Biassono","count":2},{"gps":{"lat":37.587794,"lng":14.155048},"city":"Cannizzaro","count":2},{"gps":{"lat":43.458654,"lng":11.13892},"city":"Cortona","count":1},{"gps":{"lat":43.458654,"lng":11.13892},"city":"Torre del Lago Puccini","count":1},{"gps":{"lat":45.060735,"lng":7.923549},"city":"Druento","count":1},{"gps":{"lat":44.525696,"lng":11.039437},"city":"Cesenatico","count":5},{"gps":{"lat":44.525696,"lng":11.039437},"city":"Cesena","count":18},{"gps":{"lat":37.587794,"lng":14.155048},"city":"Monreale","count":2},{"gps":{"lat":44.525696,"lng":11.039437},"city":"Savignano sul Rubicone","count":5},{"gps":{"lat":44.525696,"lng":11.039437},"city":"Carpi","count":10},{"gps":{"lat":42.741847,"lng":13.810195},"city":"Bellante","count":1},{"gps":{"lat":40.984266,"lng":16.621036},"city":"Gallipoli","count":1},{"gps":{"lat":42.227681,"lng":13.854983},"city":"Villa Raspa","count":3},{"gps":{"lat":42.803824,"lng":13.942883},"city":"Tortoreto Lido","count":1},{"gps":{"lat":41.948334,"lng":14.42912},"city":"Montesilvano Marina","count":7},{"gps":{"lat":42.53767,"lng":12.233521},"city":"Poggio Tulliano","count":2},{"gps":{"lat":43.832085,"lng":7.852165},"city":"Arma di Taggia","count":3},{"gps":{"lat":48.948727,"lng":8.849293},"city":"Mühlacker","count":1},{"gps":{"lat":48.872546,"lng":9.34979},"city":"Schwaikheim","count":1},{"gps":{"lat":48.888202,"lng":9.392641},"city":"Leutenbach","count":1},{"gps":{"lat":41.099106,"lng":14.315825},"city":"San Leucio","count":1},{"gps":{"lat":40.849818,"lng":14.490127},"city":"Ottaviano","count":3},{"gps":{"lat":45.060735,"lng":7.923549},"city":"Savigliano","count":5},{"gps":{"lat":45.060735,"lng":7.923549},"city":"Bee","count":1},{"gps":{"lat":41.114112,"lng":13.893519},"city":"Mondragone","count":3},{"gps":{"lat":40.857682,"lng":14.355158},"city":"Cercola","count":3},{"gps":{"lat":41.194619,"lng":14.553032},"city":"Solopaca","count":1},{"gps":{"lat":41.045625,"lng":15.790762},"city":"Lavello","count":1},{"gps":{"lat":45.863018,"lng":13.440437},"city":"Villesse","count":1},{"gps":{"lat":45.6209,"lng":9.768893},"city":"Leno","count":2},{"gps":{"lat":45.6209,"lng":9.768893},"city":"Cornaredo","count":7},{"gps":{"lat":45.6209,"lng":9.768893},"city":"Cologno Monzese","count":6},{"gps":{"lat":45.6209,"lng":9.768893},"city":"Pavia","count":27},{"gps":{"lat":37.587794,"lng":14.155048},"city":"Partinico","count":2},{"gps":{"lat":40.83071,"lng":14.337632},"city":"San Giorgio a Cremano","count":10},{"gps":{"lat":43.305637,"lng":12.336622},"city":"Umbertide","count":1},{"gps":{"lat":42.956183,"lng":12.703334},"city":"Foligno","count":10},{"gps":{"lat":42.965916,"lng":12.490236},"city":"Bastardo","count":2},{"gps":{"lat":44.333976,"lng":9.211127},"city":"Santa Margherita Ligure","count":4},{"gps":{"lat":38.355054,"lng":16.014778},"city":"Taurianova","count":1},{"gps":{"lat":46.011058,"lng":12.620291},"city":"Roveredo in Piano","count":1},{"gps":{"lat":40.984266,"lng":16.621036},"city":"Copertino","count":2},{"gps":{"lat":40.784309,"lng":14.394434},"city":"Torre del Greco","count":12},{"gps":{"lat":50.641949,"lng":4.659539},"city":"Woluwe-Saint-Lambert","count":2},{"gps":{"lat":40.783712,"lng":14.698841},"city":"Castel San Giorgio","count":1},{"gps":{"lat":40.749127,"lng":14.500642},"city":"Pompei","count":12},{"gps":{"lat":38.277875,"lng":16.302005},"city":"Siderno Marina","count":1},{"gps":{"lat":37.927126,"lng":15.865011},"city":"Condofuri Marina","count":1},{"gps":{"lat":38.484076,"lng":15.978996},"city":"Rosarno","count":2},{"gps":{"lat":38.946191,"lng":16.293757},"city":"Lamezia Terme","count":12},{"gps":{"lat":38.238537,"lng":16.265509},"city":"Locri","count":2},{"gps":{"lat":38.666592,"lng":16.10004},"city":"Vibo Valentia","count":17},{"gps":{"lat":40.984266,"lng":16.621036},"city":"Noicattaro","count":2},{"gps":{"lat":45.060735,"lng":7.923549},"city":"Grugliasco","count":5},{"gps":{"lat":45.060735,"lng":7.923549},"city":"Pecetto Torinese","count":3},{"gps":{"lat":45.060735,"lng":7.923549},"city":"Caselette","count":1},{"gps":{"lat":45.060735,"lng":7.923549},"city":"Verbania","count":6},{"gps":{"lat":40.500571,"lng":16.081953},"city":"Dragonetti","count":1},{"gps":{"lat":41.457538,"lng":12.661425},"city":"Nettuno","count":6},{"gps":{"lat":40.517024,"lng":16.547269},"city":"Pomarico","count":3},{"gps":{"lat":40.390573,"lng":16.556694},"city":"Pisticci","count":8},{"gps":{"lat":41.888535,"lng":14.786828},"city":"Palata","count":1},{"gps":{"lat":40.876809,"lng":14.139428},"city":"Quarto","count":27},{"gps":{"lat":41.816536,"lng":15.016134},"city":"Ururi","count":2},{"gps":{"lat":38.288471,"lng":15.807795},"city":"Bagnara Calabra","count":3},{"gps":{"lat":41.562999,"lng":14.655997},"city":"Campobasso","count":101},{"gps":{"lat":37.587794,"lng":14.155048},"city":"Randazzo","count":2},{"gps":{"lat":37.587794,"lng":14.155048},"city":"Canicattì","count":5},{"gps":{"lat":40.109711,"lng":16.580191},"city":"Rocca Imperiale","count":1},{"gps":{"lat":37.587794,"lng":14.155048},"city":"Paceco","count":1},{"gps":{"lat":43.458654,"lng":11.13892},"city":"Bottegone","count":4},{"gps":{"lat":43.867239,"lng":10.250606},"city":"Viareggio","count":8},{"gps":{"lat":43.458654,"lng":11.13892},"city":"Gallicano","count":1},{"gps":{"lat":41.261113,"lng":13.623611},"city":"Formia","count":3},{"gps":{"lat":44.374028,"lng":9.31046},"city":"San Colombano Certenoli","count":1},{"gps":{"lat":42.746847,"lng":13.888296},"city":"Mosciano Sant'Angelo","count":2},{"gps":{"lat":44.36524,"lng":9.1463},"city":"Recco","count":5},{"gps":{"lat":44.309337,"lng":8.474625},"city":"Savona","count":21},{"gps":{"lat":46.145736,"lng":13.23512},"city":"Reana del Rojale","count":1},{"gps":{"lat":40.984266,"lng":16.621036},"city":"San Foca","count":1},{"gps":{"lat":46.110948,"lng":12.902652},"city":"Spilimbergo","count":3},{"gps":{"lat":45.84416,"lng":13.302141},"city":"Castions delle mura","count":1},{"gps":{"lat":46.151042,"lng":13.055904},"city":"Baldasseria","count":4},{"gps":{"lat":"49.283333","lng":"2.483333"},"city":"Villers-Saint-Paul","count":2},{"gps":{"lat":"49.266667","lng":"1.883333"},"city":"Chaumont-en-Vexin","count":1},{"gps":{"lat":51.478557,"lng":7.553365},"city":"Kaarst","count":1},{"gps":{"lat":49.491458,"lng":6.592075},"city":"Mettlach","count":1},{"gps":{"lat":49.299583,"lng":7.061639},"city":"Sulzbach/Saar","count":1},{"gps":{"lat":49.25148,"lng":6.856922},"city":"Völklingen","count":4},{"gps":{"lat":49.541021,"lng":6.888931},"city":"Wadern","count":3},{"gps":{"lat":49.355272,"lng":6.72432},"city":"Dillingen/Saar","count":5},{"gps":{"lat":50.92958,"lng":13.458505},"city":"Oschatz","count":1},{"gps":{"lat":51.065121,"lng":13.18453},"city":"Roßwein","count":2},{"gps":{"lat":43.022434,"lng":12.070523},"city":"Paciano","count":1},{"gps":{"lat":41.742522,"lng":12.648877},"city":"Castel Gandolfo","count":2},{"gps":{"lat":50.92958,"lng":13.458505},"city":"Chemnitz","count":5},{"gps":{"lat":40.984266,"lng":16.621036},"city":"Valenzano","count":6},{"gps":{"lat":46.441472,"lng":11.282121},"city":"Appiano sulla strada del vino","count":3},{"gps":{"lat":40.984266,"lng":16.621036},"city":"Ginosa","count":6},{"gps":{"lat":40.984266,"lng":16.621036},"city":"Bitetto","count":4},{"gps":{"lat":53.998287,"lng":11.44012},"city":"Insel Poel","count":1},{"gps":{"lat":53.799996,"lng":13.099998},"city":"Sarow","count":1},{"gps":{"lat":40.914411,"lng":14.26713},"city":"Arzano","count":6},{"gps":{"lat":40.984266,"lng":16.621036},"city":"Terlizzi","count":5},{"gps":{"lat":53.769637,"lng":11.473956},"city":"Bad Kleinen","count":1},{"gps":{"lat":46.610031,"lng":11.599559},"city":"Lizzanella","count":2},{"gps":{"lat":46.441472,"lng":11.282121},"city":"Cavalese","count":1},{"gps":{"lat":53.557446,"lng":13.260278},"city":"Neubrandenburg","count":13},{"gps":{"lat":38.793085,"lng":16.448103},"city":"Amaroni","count":1},{"gps":{"lat":46.441472,"lng":11.282121},"city":"Trento","count":127},{"gps":{"lat":"43.566667","lng":"1.133333"},"city":"Lias","count":1},{"gps":{"lat":"43.55","lng":"1.616667"},"city":"Sainte-Foy-d'Aigrefeuille","count":1},{"gps":{"lat":54.235865,"lng":9.17541},"city":"Barkenholm","count":1},{"gps":{"lat":"46.416667","lng":"-0.2"},"city":"Saint-Maixent-l'Ecole","count":1},{"gps":{"lat":53.9167,"lng":9.88333},"city":"Bad Bramstedt","count":1},{"gps":{"lat":53.837171,"lng":9.961489},"city":"Kaltenkirchen","count":3},{"gps":{"lat":40.090787,"lng":9.036748},"city":"Bassacutena","count":1},{"gps":{"lat":54.344887,"lng":10.455848},"city":"Köhn","count":1},{"gps":{"lat":"","lng":""},"city":"Champdeniers-Saint-Denis","count":1},{"gps":{"lat":53.62892,"lng":10.688017},"city":"Mölln","count":1},{"gps":{"lat":53.661551,"lng":9.796868},"city":"Pinneberg","count":2},{"gps":{"lat":40.984266,"lng":16.621036},"city":"Brindisi","count":19},{"gps":{"lat":45.6209,"lng":9.768893},"city":"Calolziocorte","count":3},{"gps":{"lat":45.82622,"lng":12.785265},"city":"Cinto Caomaggiore","count":1},{"gps":{"lat":45.595873,"lng":9.075742},"city":"Cesate","count":1},{"gps":{"lat":45.6209,"lng":9.768893},"city":"Solaro","count":2},{"gps":{"lat":45.331154,"lng":7.690617},"city":"Favria","count":1},{"gps":{"lat":45.6209,"lng":9.768893},"city":"Varese","count":32},{"gps":{"lat":40.984266,"lng":16.621036},"city":"Conversano","count":5},{"gps":{"lat":37.587794,"lng":14.155048},"city":"Termini Imerese","count":2},{"gps":{"lat":39.056597,"lng":16.524986},"city":"Cosenza","count":72},{"gps":{"lat":45.613364,"lng":11.506935},"city":"Caldogno","count":1},{"gps":{"lat":45.571354,"lng":12.108383},"city":"Scorzè","count":1},{"gps":{"lat":40.850696,"lng":14.246317},"city":"Napoli","count":343},{"gps":{"lat":45.060735,"lng":7.923549},"city":"Asti","count":19},{"gps":{"lat":45.6209,"lng":9.768893},"city":"Como","count":24},{"gps":{"lat":45.6209,"lng":9.768893},"city":"Verona","count":3},{"gps":{"lat":40.984266,"lng":16.621036},"city":"Fasano","count":5},{"gps":{"lat":"49.366667","lng":"2.433333"},"city":"Breuil-le-Vert","count":1},{"gps":{"lat":46.583959,"lng":6.212336},"city":"Le Brassus","count":1},{"gps":{"lat":"42.666667","lng":"2.616667"},"city":"Ille-sur-Têt","count":1},{"gps":{"lat":"49.75","lng":"3.066667"},"city":"Ham","count":1},{"gps":{"lat":"50.583333","lng":"2.716667"},"city":"La Couture","count":1},{"gps":{"lat":"47.466667","lng":"-0.5"},"city":"Saint-Barthélemy-d'Anjou","count":1},{"gps":{"lat":44.525696,"lng":11.039437},"city":"Fiumicino di Savignano","count":1},{"gps":{"lat":45.730099,"lng":7.387426},"city":"Brissogne","count":1},{"gps":{"lat":"47","lng":"6.55"},"city":"Les Gras","count":1},{"gps":{"lat":42.75454,"lng":11.944914},"city":"Tor lupara","count":1},{"gps":{"lat":"48.833333","lng":"2.483333"},"city":"Nogent-sur-Marne","count":1},{"gps":{"lat":49.021499,"lng":2.101806},"city":"Eragny-sur-Oise","count":1},{"gps":{"lat":"47.933333","lng":"1.916667"},"city":"Fleury-les-Aubrais","count":1},{"gps":{"lat":43.458654,"lng":11.13892},"city":"Bivigliano","count":1},{"gps":{"lat":"42.766667","lng":"1.483333"},"city":"Auzat","count":1},{"gps":{"lat":45.6209,"lng":9.768893},"city":"Turate","count":2},{"gps":{"lat":50.453898,"lng":4.162573},"city":"Saint-Vaast","count":1},{"gps":{"lat":"43.633333","lng":"0.283333"},"city":"Callian","count":1},{"gps":{"lat":44.525696,"lng":11.039437},"city":"Budrione","count":2},{"gps":{"lat":"49.05","lng":"3.4"},"city":"Château-Thierry","count":3},{"gps":{"lat":"47.516667","lng":"6.8"},"city":"Montbéliard","count":1},{"gps":{"lat":"49.733333","lng":"1.45"},"city":"Neufchâtel-en-Bray","count":1},{"gps":{"lat":48.937225,"lng":2.376133},"city":"St-Denis","count":1},{"gps":{"lat":43.458654,"lng":11.13892},"city":"Sansepolcro","count":2},{"gps":{"lat":"48.916667","lng":"2.266667"},"city":"Bois-Colombes","count":1},{"gps":{"lat":"45.433333","lng":"4.316667"},"city":"Roche-la-Molière","count":2},{"gps":{"lat":37.587794,"lng":14.155048},"city":"Petralia Sottana","count":1},{"gps":{"lat":"48.816667","lng":"2.366667"},"city":"Le Kremlin-Bicêtre","count":1},{"gps":{"lat":44.525696,"lng":11.039437},"city":"Roncofreddo","count":1},{"gps":{"lat":"48.816667","lng":"2.383333"},"city":"Ivry-sur-Seine","count":2},{"gps":{"lat":49.618341,"lng":3.907396},"city":"St-Fargeau-sur-Seine","count":1},{"gps":{"lat":"49.766667","lng":"0.816667"},"city":"Gonzeville","count":1},{"gps":{"lat":46.509327,"lng":6.498317},"city":"Morges","count":1},{"gps":{"lat":"48.95","lng":"2.033333"},"city":"Carrières-sous-Poissy","count":1},{"gps":{"lat":"48.133333","lng":"-1.333333"},"city":"Marpiré","count":1},{"gps":{"lat":"49.333333","lng":"1.1"},"city":"Tourville-la-Rivière","count":1},{"gps":{"lat":"49.066667","lng":"2.6"},"city":"Moussy-le-Neuf","count":2},{"gps":{"lat":"48.616667","lng":"2.316667"},"city":"Brétigny-sur-Orge","count":3},{"gps":{"lat":"49.766667","lng":"2.483333"},"city":"Moreuil","count":1},{"gps":{"lat":"48.966667","lng":"2.066667"},"city":"Achères","count":1},{"gps":{"lat":"43.4","lng":"3.683333"},"city":"Sète","count":2},{"gps":{"lat":43.433031,"lng":6.736018},"city":"Fréjus","count":4},{"gps":{"lat":37.587794,"lng":14.155048},"city":"Cinisi","count":2},{"gps":{"lat":"48.816667","lng":"2.366667"},"city":"Le Kremlin-Bicêtre","count":8},{"gps":{"lat":41.980819,"lng":12.766824},"city":"Frattocchie","count":1},{"gps":{"lat":"48.85","lng":"2.566667"},"city":"Noisy-le-Grand","count":2},{"gps":{"lat":"49.533333","lng":"0.733333"},"city":"Caudebec-en-Caux","count":2},{"gps":{"lat":"45.633333","lng":"4.833333"},"city":"Sérézin-du-Rhône","count":1},{"gps":{"lat":"44.133333","lng":"0.35"},"city":"Nérac","count":3},{"gps":{"lat":40.939312,"lng":14.27403},"city":"Frattamaggiore","count":5},{"gps":{"lat":"43.533333","lng":"3.933333"},"city":"Palavas-les-Flots","count":7},{"gps":{"lat":"43.533333","lng":"6.7"},"city":"Bagnols-en-Forêt","count":2},{"gps":{"lat":45.6209,"lng":9.768893},"city":"Rovato","count":2},{"gps":{"lat":43.458654,"lng":11.13892},"city":"Pratantico","count":1},{"gps":{"lat":51.537902,"lng":7.219224},"city":"Herne","count":1},{"gps":{"lat":48.993755,"lng":9.188311},"city":"Hessigheim","count":1},{"gps":{"lat":53.791315,"lng":9.426798},"city":"Glückstadt","count":2},{"gps":{"lat":39.815432,"lng":16.202705},"city":"Castrovillari","count":5},{"gps":{"lat":44.525696,"lng":11.039437},"city":"Calderara di Reno","count":1},{"gps":{"lat":49.786157,"lng":7.458747},"city":"Kirn","count":1},{"gps":{"lat":50.017677,"lng":8.885339},"city":"Rodgau","count":1},{"gps":{"lat":"43.3","lng":"5.4"},"city":"Marseille 8e","count":8},{"gps":{"lat":"","lng":""},"city":"Sainte-Rose","count":1},{"gps":{"lat":49.964645,"lng":8.951359},"city":"Babenhausen","count":1},{"gps":{"lat":44.525696,"lng":11.039437},"city":"Cavezzo","count":2},{"gps":{"lat":51.306663,"lng":6.236408},"city":"Nettetal","count":2},{"gps":{"lat":"43.683333","lng":"5.5"},"city":"Pertuis","count":18},{"gps":{"lat":51.611819,"lng":7.200754},"city":"Recklinghausen","count":1},{"gps":{"lat":"50.25","lng":"4"},"city":"Ferrière-la-Grande","count":1},{"gps":{"lat":"45.7","lng":"5.916667"},"city":"Aix-les-Bains","count":1},{"gps":{"lat":51.478557,"lng":7.553365},"city":"Lindlar","count":1},{"gps":{"lat":51.049754,"lng":7.017386},"city":"Leverkusen","count":5},{"gps":{"lat":48.523616,"lng":9.053553},"city":"Tübingen","count":4},{"gps":{"lat":48.310714,"lng":11.914452},"city":"Erding","count":1},{"gps":{"lat":43.067469,"lng":12.549026},"city":"Bastia Umbra","count":4},{"gps":{"lat":46.782485,"lng":6.633432},"city":"Yverdon-les-Bains","count":2},{"gps":{"lat":51.478557,"lng":7.553365},"city":"Duisburg","count":13},{"gps":{"lat":51.755955,"lng":11.462134},"city":"Aschersleben","count":1},{"gps":{"lat":49.45385,"lng":11.077324},"city":"Nürnberg","count":11},{"gps":{"lat":49.39381,"lng":8.594665},"city":"Plankstadt","count":1},{"gps":{"lat":"44.583333","lng":"4.7"},"city":"Rochemaure","count":1},{"gps":{"lat":"49.116667","lng":"1.25"},"city":"La Croix-Saint-Leufroy","count":1},{"gps":{"lat":49.191735,"lng":9.224944},"city":"Neckarsulm","count":1},{"gps":{"lat":47.663475,"lng":9.177582},"city":"Konstanz","count":2},{"gps":{"lat":"42.466667","lng":"9.45"},"city":"Penta-di-Casinca","count":1},{"gps":{"lat":"","lng":""},"city":"Lyon 1er","count":9},{"gps":{"lat":40.860672,"lng":14.843984},"city":"Ioffredo","count":1},{"gps":{"lat":38.647383,"lng":16.486205},"city":"Davoli","count":2},{"gps":{"lat":"48.533333","lng":"-2.983333"},"city":"Châtelaudren","count":1},{"gps":{"lat":"48.6","lng":"-2.833333"},"city":"Binic","count":1},{"gps":{"lat":"46.816667","lng":"-1.266667"},"city":"Chauché","count":1},{"gps":{"lng":"2.3003","lat":"48.8412"},"city":"Paris 15e","count":19},{"gps":{"lat":"48.566667","lng":"-2.95"},"city":"Plélo","count":1},{"gps":{"lat":42.050433,"lng":13.991508},"city":"Pacentro","count":1},{"gps":{"lat":42.227681,"lng":13.854983},"city":"Cartecchio","count":3},{"gps":{"lat":"47.483333","lng":"-3.116667"},"city":"Quiberon","count":3},{"gps":{"lat":"44.033333","lng":"4.183333"},"city":"Martignargues","count":1},{"gps":{"lat":"48.7","lng":"6.216667"},"city":"Saint-Max","count":1},{"gps":{"lat":"46.9","lng":"1.033333"},"city":"Obterre","count":1},{"gps":{"lat":40.649609,"lng":14.699843},"city":"Cetara","count":1},{"gps":{"lat":"44.633333","lng":"-0.333333"},"city":"Cérons","count":1},{"gps":{"lat":"47.033333","lng":"-0.05"},"city":"Ternay","count":3},{"gps":{"lat":"48.466667","lng":"-1.966667"},"city":"Saint-Hélen","count":1},{"gps":{"lat":"45.316667","lng":"3.25"},"city":"Espalem","count":1},{"gps":{"lat":"44.6","lng":"-0.55"},"city":"Cabanac-et-Villagrains","count":1},{"gps":{"lat":"44.75","lng":"-0.033333"},"city":"Mauriac","count":1},{"gps":{"lat":"46.433333","lng":"5.35"},"city":"Saint-Amour","count":1},{"gps":{"lat":"48.75","lng":"6.9"},"city":"Rhodes","count":1},{"gps":{"lat":"48.9","lng":"6.066667"},"city":"Pont-à-Mousson","count":2},{"gps":{"lat":"","lng":""},"city":"Courcelles-lès-Montbéliard","count":1},{"gps":{"lat":48.106218,"lng":11.72896},"city":"Haar","count":1},{"gps":{"lat":"47.916667","lng":"7.533333"},"city":"Balgau","count":1},{"gps":{"lat":37.587794,"lng":14.155048},"city":"Caltanissetta","count":10},{"gps":{"lat":"45.5","lng":"4.55"},"city":"La Grand-Croix","count":1},{"gps":{"lat":"45.316667","lng":"1.766667"},"city":"Naves","count":1},{"gps":{"lat":"43.3","lng":"3.416667"},"city":"Vias","count":1},{"gps":{"lat":43.966407,"lng":12.756294},"city":"Gabicce Mare","count":1},{"gps":{"lat":52.131589,"lng":11.639961},"city":"Magdeburg","count":1},{"gps":{"lat":"46.466667","lng":"2.966667"},"city":"Buxières-les-Mines","count":1},{"gps":{"lat":"49.116667","lng":"-1.1"},"city":"Agneaux","count":1},{"gps":{"lat":"49.166667","lng":"6.733333"},"city":"L'Hôpital","count":1},{"gps":{"lat":51.478557,"lng":7.553365},"city":"Bonn","count":6},{"gps":{"lat":"47.166667","lng":"6.833333"},"city":"Fournet-Blancheroche","count":1},{"gps":{"lat":51.445525,"lng":7.567465},"city":"Schwerte","count":1},{"gps":{"lat":"49.05","lng":"-0.333333"},"city":"Bretteville-sur-Laize","count":1},{"gps":{"lat":"48.483333","lng":"3.666667"},"city":"Gélannes","count":1},{"gps":{"lat":"47.816667","lng":"-2.383333"},"city":"Malestroit","count":1},{"gps":{"lat":"49.233333","lng":"5.983333"},"city":"Homécourt","count":1},{"gps":{"lat":"49.283333","lng":"5.7"},"city":"Dommary-Baroncourt","count":1},{"gps":{"lat":"46.2235","lng":"-1.43794"},"city":"Loix","count":1},{"gps":{"lat":"46.366667","lng":"-0.1"},"city":"La Mothe-Saint-Héray","count":1},{"gps":{"lat":"45.883333","lng":"-0.683333"},"city":"Saint-Savinien","count":1},{"gps":{"lat":41.521123,"lng":14.17702},"city":"Monteroduni","count":1},{"gps":{"lat":"49.716667","lng":"1.633333"},"city":"Ronchois","count":1},{"gps":{"lat":"43.22838","lng":"3.135"},"city":"Fleury","count":1},{"gps":{"lat":"45.516667","lng":"6.45"},"city":"Bonneval","count":4},{"gps":{"lat":45.060735,"lng":7.923549},"city":"Alpignano","count":1},{"gps":{"lat":"48.666667","lng":"7.6"},"city":"Truchtersheim","count":1},{"gps":{"lat":"47.983333","lng":"0.9"},"city":"Mondoubleau","count":1},{"gps":{"lat":"45.866667","lng":"3.05"},"city":"Volvic","count":1},{"gps":{"lat":"49.233333","lng":"-0.05"},"city":"Dozulé","count":1},{"gps":{"lat":"","lng":""},"city":"Jonquières-Saint-Vincent","count":1},{"gps":{"lat":"46.116667","lng":"4.733333"},"city":"Saint-Jean-d'Ardières","count":1},{"gps":{"lat":"47.133333","lng":"-2.166667"},"city":"La Plaine-sur-Mer","count":2},{"gps":{"lat":"47.2","lng":"6.166667"},"city":"Mamirolle","count":2},{"gps":{"lat":"43.45","lng":"1.533333"},"city":"Montbrun-Lauragais","count":1},{"gps":{"lat":51.478557,"lng":7.553365},"city":"Dortmund","count":16},{"gps":{"lat":"48.633333","lng":"6.316667"},"city":"Varangéville","count":1},{"gps":{"lat":"47.966667","lng":"-1.8"},"city":"Guichen","count":1},{"gps":{"lat":"49.833333","lng":"1.733333"},"city":"Saint-Germain-sur-Bresle","count":1},{"gps":{"lat":"47.5","lng":"-0.8"},"city":"Bécon-les-Granits","count":1},{"gps":{"lat":48.94553,"lng":8.576311},"city":"Remchingen","count":1},{"gps":{"lat":"48.683333","lng":"5.333333"},"city":"Ligny-en-Barrois","count":1},{"gps":{"lat":"43.416667","lng":"3.366667"},"city":"Valros","count":1},{"gps":{"lat":"45.766667","lng":"5.2"},"city":"Loyettes","count":1},{"gps":{"lat":"46.183333","lng":"5.116667"},"city":"Montracol","count":1},{"gps":{"lat":53.695926,"lng":10.190802},"city":"Ammersbek","count":2},{"gps":{"lat":45.6209,"lng":9.768893},"city":"Pioltello","count":6},{"gps":{"lat":"48.35","lng":"7.633333"},"city":"Herbsheim","count":1},{"gps":{"lat":40.800907,"lng":14.051827},"city":"Monte di Procida","count":1},{"gps":{"lat":"45.033333","lng":"-0.75"},"city":"Avensan","count":1},{"gps":{"lat":43.578135,"lng":13.352735},"city":"Camerata Picena","count":1},{"gps":{"lat":40.959512,"lng":14.248929},"city":"Sant'Arpino","count":3},{"gps":{"lat":"48.966667","lng":"1.866667"},"city":"Flins-sur-Seine","count":4},{"gps":{"lat":"48.2","lng":"-0.816667"},"city":"Saint-Germain-le-Guillaume","count":1},{"gps":{"lat":"49.516667","lng":"3.85"},"city":"Saint-Erme-Outre-et-Ramecourt","count":1},{"gps":{"lat":"49.433333","lng":"1.133333"},"city":"Bonsecours","count":1},{"gps":{"lat":"44.983333","lng":"2.433333"},"city":"Jussac","count":1},{"gps":{"lat":"50.466667","lng":"2.916667"},"city":"Estevelles","count":1},{"gps":{"lat":"48.866667","lng":"1.466667"},"city":"Oulins","count":1},{"gps":{"lat":43.458654,"lng":11.13892},"city":"Porto Azzurro","count":1},{"gps":{"lat":"48.366667","lng":"7.45"},"city":"Epfig","count":1},{"gps":{"lat":45.060735,"lng":7.923549},"city":"Vinovo","count":1},{"gps":{"lat":"47","lng":"5.15"},"city":"Seurre","count":1},{"gps":{"lat":"45.7","lng":"3.316667"},"city":"Saint-Julien-de-Coppel","count":1},{"gps":{"lat":40.090787,"lng":9.036748},"city":"Nurri","count":1},{"gps":{"lat":"50.8","lng":"1.766667"},"city":"Rety","count":1},{"gps":{"lat":50.154554,"lng":5.399211},"city":"Bersillies-l'Abbaye","count":1},{"gps":{"lat":"48.4","lng":"7"},"city":"Vieux-Moulin","count":1},{"gps":{"lat":"45.233333","lng":"5.883333"},"city":"Villard-Bonnot","count":2},{"gps":{"lat":"46.4","lng":"0.333333"},"city":"Aslonnes","count":1},{"gps":{"lat":"49.233333","lng":"0.483333"},"city":"Lieurey","count":1},{"gps":{"lat":"49.3","lng":"4.116667"},"city":"Witry-lès-Reims","count":2},{"gps":{"lat":51.478557,"lng":7.553365},"city":"Lüdenscheid","count":3},{"gps":{"lat":"46.116667","lng":"1.05"},"city":"Bellac","count":1},{"gps":{"lat":"49.216667","lng":"4.1"},"city":"Taissy","count":1},{"gps":{"lng":"2.3444","lat":"48.8925"},"city":"Paris 18e","count":19},{"gps":{"lat":"47.283333","lng":"5.966667"},"city":"Miserey-Salines","count":1},{"gps":{"lat":"42.75","lng":"2.916667"},"city":"Pia","count":2},{"gps":{"lat":"46.583333","lng":"-0.5"},"city":"Le Beugnon","count":1},{"gps":{"lat":"43.8","lng":"7.5"},"city":"Castellar","count":2},{"gps":{"lat":50.641949,"lng":4.659539},"city":"Saint-Josse-ten-Noode","count":3},{"gps":{"lat":45.6209,"lng":9.768893},"city":"Sesto San Giovanni","count":14},{"gps":{"lat":"47.883333","lng":"7.283333"},"city":"Raedersheim","count":1},{"gps":{"lat":"48.533333","lng":"1.7"},"city":"Gallardon","count":2},{"gps":{"lat":"46.633333","lng":"5.183333"},"city":"Branges","count":1},{"gps":{"lat":"45.9","lng":"4.933333"},"city":"Mionnay","count":1},{"gps":{"lat":"50.666667","lng":"3.15"},"city":"Croix","count":17},{"gps":{"lat":"49.5","lng":"3.45"},"city":"Anizy-le-Château","count":1},{"gps":{"lat":"47.683333","lng":"-2.966667"},"city":"Pluneret","count":2},{"gps":{"lat":"45.4","lng":"2.05"},"city":"Egletons","count":2},{"gps":{"lat":"44.366667","lng":"0.033333"},"city":"Ruffiac","count":1},{"gps":{"lat":"48.65","lng":"2.416667"},"city":"Ris-Orangis","count":14},{"gps":{"lat":48.240507,"lng":12.525245},"city":"Mühldorf am Inn","count":1},{"gps":{"lat":"45.866667","lng":"1.233333"},"city":"Couzeix","count":2},{"gps":{"lat":"45.283333","lng":"1.983333"},"city":"Clergoux","count":1},{"gps":{"lat":"","lng":""},"city":"Haybes","count":1},{"gps":{"lat":"47.25","lng":"-1.5"},"city":"Sainte-Luce-sur-Loire","count":5},{"gps":{"lat":"49.333333","lng":"-1.266667"},"city":"Saint-Côme-du-Mont","count":1},{"gps":{"lat":"48.616667","lng":"2.5"},"city":"Saint-Pierre-du-Perray","count":2},{"gps":{"lat":"48.383333","lng":"-4.3"},"city":"Loperhet","count":1},{"gps":{"lat":"48.816667","lng":"6.633333"},"city":"Saint-Médard","count":1},{"gps":{"lat":50.154554,"lng":5.399211},"city":"Beyne-Heusay","count":1},{"gps":{"lat":45.060735,"lng":7.923549},"city":"Lumellogno","count":1},{"gps":{"lat":"49.4","lng":"2.433333"},"city":"Fitz-James","count":1},{"gps":{"lat":"48.633333","lng":"2.283333"},"city":"Longpont-sur-Orge","count":6},{"gps":{"lat":47.111833,"lng":6.838226},"city":"La Chaux-de-Fonds","count":1},{"gps":{"lat":"48.633333","lng":"2.3"},"city":"Saint-Michel-sur-Orge","count":6},{"gps":{"lat":"45.75","lng":"4.966667"},"city":"Chassieu","count":5},{"gps":{"lat":50.641949,"lng":4.659539},"city":"Ixelles","count":78},{"gps":{"lat":"47.05","lng":"-0.766667"},"city":"Toutlemonde","count":1},{"gps":{"lat":45.820286,"lng":13.445874},"city":"Turriaco","count":1},{"gps":{"lat":"43.416667","lng":"5.216667"},"city":"Marignane","count":36},{"gps":{"lat":"43.65","lng":"1.516667"},"city":"Montrabé","count":2},{"gps":{"lat":"","lng":""},"city":"Auménancourt","count":1},{"gps":{"lat":"42.366667","lng":"9.15"},"city":"Castirla","count":1},{"gps":{"lat":"47.483333","lng":"1.183333"},"city":"Chaumont-sur-Loire","count":1},{"gps":{"lat":"49.383333","lng":"3.35"},"city":"Villeneuve-Saint-Germain","count":1},{"gps":{"lat":"","lng":""},"city":"Saint-Rémy-du-Val","count":1},{"gps":{"lat":"47.816667","lng":"-1.95"},"city":"Pipriac","count":2},{"gps":{"lat":"47.45","lng":"5.583333"},"city":"Gray","count":10},{"gps":{"lat":"50.316667","lng":"3.516667"},"city":"Famars","count":2},{"gps":{"lat":"47.383333","lng":"0.683333"},"city":"Tours","count":489},{"gps":{"lat":43.458654,"lng":11.13892},"city":"Tavola","count":1},{"gps":{"lat":"","lng":""},"city":"Guidel","count":3},{"gps":{"lat":43.458654,"lng":11.13892},"city":"Ghirlanda","count":1},{"gps":{"lat":"50.05","lng":"4.066667"},"city":"Glageon","count":1},{"gps":{"lat":50.154554,"lng":5.399211},"city":"Rixensart","count":2},{"gps":{"lat":50.445983,"lng":6.079788},"city":"Verviers","count":9},{"gps":{"lat":"","lng":""},"city":"La Bonneville-sur-Iton","count":1},{"gps":{"lat":50.154554,"lng":5.399211},"city":"La Louvière","count":19},{"gps":{"lat":"","lng":""},"city":"Mons","count":60},{"gps":{"lat":"43.5","lng":"1.516667"},"city":"Pompertuzat","count":2},{"gps":{"lat":41.975633,"lng":14.252815},"city":"Montone","count":3},{"gps":{"lat":"49.283333","lng":"1.833333"},"city":"Trie-Château","count":1},{"gps":{"lat":"49.25","lng":"2.1"},"city":"Lormaison","count":1},{"gps":{"lat":"45.733333","lng":"3.15"},"city":"Pérignat-lès-Sarliève","count":1},{"gps":{"lat":"47.45","lng":"6.8"},"city":"Mandeure","count":1},{"gps":{"lat":"47.1","lng":"-0.916667"},"city":"Saint-Léger-sous-Cholet","count":1},{"gps":{"lat":"43.316667","lng":"6.283333"},"city":"Gonfaron","count":3},{"gps":{"lat":"45.683333","lng":"5.033333"},"city":"Saint-Laurent-de-Mure","count":1},{"gps":{"lat":"49.583333","lng":"-1.65"},"city":"Hardinvast","count":1},{"gps":{"lat":"44.616667","lng":"6.683333"},"city":"Vars","count":1},{"gps":{"lat":"49.433333","lng":"1.033333"},"city":"Le Petit-Quevilly","count":1},{"gps":{"lat":"44.683333","lng":"-1"},"city":"Audenge","count":2},{"gps":{"lat":"49.6","lng":"2.383333"},"city":"Chepoix","count":1},{"gps":{"lat":"51.033333","lng":"2.4"},"city":"Coudekerque-Branche","count":3},{"gps":{"lat":"48.016667","lng":"0.966667"},"city":"Boursay","count":1},{"gps":{"lat":"49.283333","lng":"1.5"},"city":"Boisemont","count":3},{"gps":{"lat":40.970012,"lng":14.190427},"city":"Lusciano","count":1},{"gps":{"lat":50.644858,"lng":7.227253},"city":"Bad Honnef","count":1},{"gps":{"lat":41.492925,"lng":14.590729},"city":"Vinchiaturo","count":4},{"gps":{"lat":"43.933333","lng":"-0.066667"},"city":"Cazaubon","count":1},{"gps":{"lat":"48.333333","lng":"4.05"},"city":"La Chapelle-Saint-Luc","count":2},{"gps":{"lat":"49.35","lng":"2.6"},"city":"Saint-Martin-Longueau","count":1},{"gps":{"lat":"45.75","lng":"6.416667"},"city":"Ugine","count":1},{"gps":{"lat":"49.383333","lng":"-1.533333"},"city":"Saint-Sauveur-le-Vicomte","count":2},{"gps":{"lat":"","lng":""},"city":"Larra","count":1},{"gps":{"lat":"46.4","lng":"6.6"},"city":"Neuvecelle","count":1},{"gps":{"lat":46.084574,"lng":12.94132},"city":"Dignano","count":1},{"gps":{"lat":54.170784,"lng":10.559312},"city":"Malente","count":1},{"gps":{"lat":51.521581,"lng":6.929204},"city":"Bottrop","count":3},{"gps":{"lat":"48.616667","lng":"-2.15"},"city":"Lancieux","count":1},{"gps":{"lat":"50.35","lng":"3.166667"},"city":"Lewarde","count":1},{"gps":{"lat":"45.583333","lng":"5.533333"},"city":"La Bâtie-Montgascon","count":1},{"gps":{"lat":"47.4","lng":"1.833333"},"city":"Loreux","count":1},{"gps":{"lat":"49.783333","lng":"0.633333"},"city":"Cany-Barville","count":2},{"gps":{"lat":"","lng":""},"city":"Port-Louis","count":1},{"gps":{"lat":43.922924,"lng":8.101152},"city":"San Bartolomeo al Mare","count":1},{"gps":{"lat":"48.416667","lng":"3.233333"},"city":"Bray-sur-Seine","count":1},{"gps":{"lat":"","lng":""},"city":"Westhouse","count":1},{"gps":{"lat":"44.533333","lng":"-0.366667"},"city":"Bommes","count":1},{"gps":{"lat":"","lng":""},"city":"Trégueux","count":1},{"gps":{"lat":"48.666667","lng":"3.283333"},"city":"Champcenest","count":1},{"gps":{"lat":"45.4","lng":"3.333333"},"city":"Brassac-les-Mines","count":2},{"gps":{"lat":"48.65","lng":"6.2"},"city":"Heillecourt","count":1},{"gps":{"lat":"48.85","lng":"1.733333"},"city":"Flexanville","count":1},{"gps":{"lat":"49.083333","lng":"0.016667"},"city":"Le Mesnil-Mauger","count":1},{"gps":{"lat":"48.666667","lng":"7.716667"},"city":"Vendenheim","count":1},{"gps":{"lat":"","lng":""},"city":"Saint-Just-Luzac","count":1},{"gps":{"lat":"45.883333","lng":"0.683333"},"city":"Exideuil","count":1},{"gps":{"lat":"49.833333","lng":"4.2"},"city":"Aubenton","count":1},{"gps":{"lat":"43.8","lng":"0.833333"},"city":"Monfort","count":1},{"gps":{"lat":"50.5","lng":"3.116667"},"city":"Mérignies","count":1},{"gps":{"lat":"50.65","lng":"2.766667"},"city":"Sailly-sur-la-Lys","count":1},{"gps":{"lat":"44.183333","lng":"0.683333"},"city":"Bon-Encontre","count":1},{"gps":{"lat":"43.85","lng":"3.383333"},"city":"Saint-Michel","count":1},{"gps":{"lat":"43.7","lng":"6.85"},"city":"Saint-Vallier-de-Thiey","count":1},{"gps":{"lat":"","lng":""},"city":"Perrigny","count":2},{"gps":{"lat":"48.8","lng":"2.266667"},"city":"Clamart","count":50},{"gps":{"lat":"48.716667","lng":"6.266667"},"city":"Seichamps","count":1},{"gps":{"lat":"42.616667","lng":"2.816667"},"city":"Trouillas","count":1},{"gps":{"lat":"47.666667","lng":"-0.566667"},"city":"Champigné","count":1},{"gps":{"lat":"45.816667","lng":"3.516667"},"city":"Peschadoires","count":1},{"gps":{"lat":"43.55","lng":"6"},"city":"Barjols","count":1},{"gps":{"lat":"47.583333","lng":"7.566667"},"city":"Saint-Louis","count":1},{"gps":{"lat":43.458654,"lng":11.13892},"city":"Fiesole","count":4},{"gps":{"lat":"47.833333","lng":"0.266667"},"city":"Ecommoy","count":3},{"gps":{"lat":"48.4","lng":"2.716667"},"city":"Avon","count":7},{"gps":{"lat":"46.333333","lng":"1.9"},"city":"Bonnat","count":1},{"gps":{"lat":41.645126,"lng":14.24632},"city":"Miranda","count":2},{"gps":{"lat":"48.783333","lng":"3.116667"},"city":"Chailly-en-Brie","count":1},{"gps":{"lat":"45.766667","lng":"-0.716667"},"city":"Saint-Georges-des-Coteaux","count":1},{"gps":{"lat":"43.216667","lng":"-0.016667"},"city":"Azereix","count":1},{"gps":{"lat":43.458654,"lng":11.13892},"city":"Le bagnese San giusto","count":1},{"gps":{"lat":51.478557,"lng":7.553365},"city":"Witten","count":3},{"gps":{"lat":"44.716667","lng":"1.15"},"city":"Saint-Pompont","count":1},{"gps":{"lat":"48.933333","lng":"3.1"},"city":"Sept-Sorts","count":1},{"gps":{"lat":45.6209,"lng":9.768893},"city":"Lomazzo","count":1},{"gps":{"lat":"46.283333","lng":"4.9"},"city":"Crottet","count":1},{"gps":{"lat":"45.416667","lng":"4.066667"},"city":"Saint-Bonnet-le-Château","count":2},{"gps":{"lat":"47.9","lng":"-2.116667"},"city":"Guer","count":1},{"gps":{"lat":"50.566667","lng":"2.85"},"city":"Herlies","count":1},{"gps":{"lat":"47.8","lng":"1.1"},"city":"Areines","count":1},{"gps":{"lat":"43.4","lng":"-1.566667"},"city":"Ahetze","count":1},{"gps":{"lat":"43.716667","lng":"-0.833333"},"city":"Montfort-en-Chalosse","count":1},{"gps":{"lat":"46.116667","lng":"3.4"},"city":"Bellerive-sur-Allier","count":3},{"gps":{"lat":"50.333333","lng":"3.05"},"city":"Corbehem","count":1},{"gps":{"lat":"","lng":""},"city":"Saint-Loup-Lamairé","count":1},{"gps":{"lat":45.184076,"lng":5.753902},"city":"St-Martin-d'Hères","count":1},{"gps":{"lat":"48.766667","lng":"2.166667"},"city":"Jouy-en-Josas","count":1},{"gps":{"lat":"43.783333","lng":"7.45"},"city":"Gorbio","count":1},{"gps":{"lat":"48.883333","lng":"2.716667"},"city":"Thorigny-sur-Marne","count":5},{"gps":{"lat":"50.416667","lng":"2.9"},"city":"Billy-Montigny","count":1},{"gps":{"lat":"48.383333","lng":"2.95"},"city":"Montereau-Fault-Yonne","count":1},{"gps":{"lat":39.162402,"lng":16.085662},"city":"Belmonte Calabro","count":1},{"gps":{"lat":"43.916667","lng":"-1.25"},"city":"Linxe","count":1},{"gps":{"lat":"43.4","lng":"0.883333"},"city":"Mirambeau","count":1},{"gps":{"lat":50.154554,"lng":5.399211},"city":"Gembloux","count":4},{"gps":{"lat":"49.3","lng":"1.7"},"city":"Bézu-Saint-Eloi","count":1},{"gps":{"lat":"43.283333","lng":"3.283333"},"city":"Sérignan","count":2},{"gps":{"lat":"42.85","lng":"2.2"},"city":"Belvianes-et-Cavirac","count":1},{"gps":{"lat":"49.45","lng":"3.183333"},"city":"Morsain","count":1},{"gps":{"lat":"43.216667","lng":"-0.9"},"city":"Garindein","count":1},{"gps":{"lat":"48.183333","lng":"-1.65"},"city":"Betton","count":2},{"gps":{"lat":"50.433333","lng":"2.866667"},"city":"Loison-sous-Lens","count":1},{"gps":{"lat":"48.016667","lng":"0.2"},"city":"Coulaines","count":1},{"gps":{"lat":"48.616667","lng":"7.7"},"city":"Niederhausbergen","count":1},{"gps":{"lat":"48.5","lng":"-4.766667"},"city":"Porspoder","count":1},{"gps":{"lat":"49.916667","lng":"2.916667"},"city":"Biaches","count":1},{"gps":{"lat":"50.833333","lng":"2.216667"},"city":"Watten","count":1},{"gps":{"lat":"43.084286","lng":"5.8077074"},"city":"Six-Fours-les-Plages","count":28},{"gps":{"lat":"48.283333","lng":"-4.6"},"city":"Camaret-sur-Mer","count":1},{"gps":{"lat":"48.583333","lng":"-3.833333"},"city":"Morlaix","count":23},{"gps":{"lat":45.446259,"lng":8.005722},"city":"Paperino","count":1},{"gps":{"lat":39.242928,"lng":17.109892},"city":"Marina di Strongoli","count":1},{"gps":{"lat":45.6209,"lng":9.768893},"city":"Calvenzano","count":1},{"gps":{"lat":40.984266,"lng":16.621036},"city":"San Giovanni Rotondo","count":2},{"gps":{"lat":"48.333333","lng":"3.016667"},"city":"La Brosse-Montceaux","count":1},{"gps":{"lat":"44.666667","lng":"3.05"},"city":"Nasbinals","count":1},{"gps":{"lat":"46.25","lng":"5.666667"},"city":"Oyonnax","count":11},{"gps":{"lat":40.090787,"lng":9.036748},"city":"Oristano","count":10},{"gps":{"lat":43.458654,"lng":11.13892},"city":"Riotorto","count":1},{"gps":{"lat":"48.883333","lng":"6.05"},"city":"Blénod-lès-Pont-à-Mousson","count":2},{"gps":{"lat":"48.016667","lng":"-2.95"},"city":"Saint-Thuriau","count":1},{"gps":{"lat":"48.966667","lng":"2.433333"},"city":"Bonneuil-en-France","count":2},{"gps":{"lat":49.756918,"lng":10.618627},"city":"Schlüsselfeld","count":1},{"gps":{"lat":45.730099,"lng":7.387426},"city":"Nus","count":3},{"gps":{"lat":39.477787,"lng":9.168011},"city":"Sant'Anna","count":1},{"gps":{"lat":"","lng":""},"city":"Bretteville-l'Orgueilleuse","count":1},{"gps":{"lng":"2.3822","lat":"48.8817"},"city":"Paris 19e","count":354},{"gps":{"lat":"50.466667","lng":"2.883333"},"city":"Annay","count":1},{"gps":{"lat":"47.95","lng":"5.75"},"city":"Bourbonne-les-Bains","count":1},{"gps":{"lat":"46.1","lng":"3.433333"},"city":"Abrest","count":1},{"gps":{"lat":"48.083333","lng":"-1.616667"},"city":"Chantepie","count":3},{"gps":{"lat":"43.7158465","lng":"4.8380124"},"city":"Maussane-les-Alpilles","count":2},{"gps":{"lat":"48.983333","lng":"-0.083333"},"city":"Vendeuvre","count":1},{"gps":{"lat":"48.616667","lng":"5.3"},"city":"Villers-le-Sec","count":1},{"gps":{"lat":"43.7","lng":"5.166667"},"city":"Alleins","count":1},{"gps":{"lat":"47.816667","lng":"-3.783333"},"city":"Névez","count":1},{"gps":{"lat":40.984266,"lng":16.621036},"city":"Grumo Appula","count":2},{"gps":{"lat":"49.016667","lng":"2.35"},"city":"Piscop","count":3},{"gps":{"lat":"48.3","lng":"-0.366667"},"city":"Champgenéteux","count":1},{"gps":{"lat":"47.583333","lng":"0.916667"},"city":"Château-Renault","count":2},{"gps":{"lat":"46.283333","lng":"2.75"},"city":"Commentry","count":2},{"gps":{"lat":39.7231,"lng":16.089885},"city":"Acquafredda","count":2},{"gps":{"lat":"48.466667","lng":"1.483333"},"city":"Lèves","count":2},{"gps":{"lat":"43.866667","lng":"1.233333"},"city":"Verdun-sur-Garonne","count":2},{"gps":{"lat":"47.183333","lng":"5.316667"},"city":"Pont","count":1},{"gps":{"lat":"50.666667","lng":"3.216667"},"city":"Lannoy","count":1},{"gps":{"lat":40.984266,"lng":16.621036},"city":"Peschici","count":1},{"gps":{"lat":42.564142,"lng":12.640547},"city":"Terni","count":18},{"gps":{"lat":"43.8","lng":"5.066667"},"city":"Cheval-Blanc","count":1},{"gps":{"lat":"43.45","lng":"6.683333"},"city":"Puget-sur-Argens","count":1},{"gps":{"lat":"45.316667","lng":"-0.416667"},"city":"Coux","count":2},{"gps":{"lat":"44.833333","lng":"0.7"},"city":"Couze-et-Saint-Front","count":1},{"gps":{"lat":"","lng":""},"city":"Montacher-Villegardin","count":1},{"gps":{"lat":"43.083333","lng":"0.4"},"city":"Escala","count":1},{"gps":{"lat":"48.816667","lng":"2.8"},"city":"Villeneuve-Saint-Denis","count":1},{"gps":{"lat":"45.916667","lng":"6.4"},"city":"Saint-Jean-de-Sixt","count":3},{"gps":{"lat":"46.166667","lng":"4.8"},"city":"Thoissey","count":1},{"gps":{"lat":45.060735,"lng":7.923549},"city":"Moncalieri","count":5},{"gps":{"lat":"43.983333","lng":"4.216667"},"city":"Brignon","count":1},{"gps":{"lat":46.173595,"lng":13.187934},"city":"Cassacco","count":1},{"gps":{"lat":45.6209,"lng":9.768893},"city":"Chiari","count":1},{"gps":{"lat":"47.85","lng":"-3.85"},"city":"Trégunc","count":1},{"gps":{"lat":"50.75","lng":"2.25"},"city":"Saint-Omer","count":24},{"gps":{"lat":"45.816667","lng":"-1.116667"},"city":"Marennes","count":6},{"gps":{"lat":"45.85","lng":"6.2"},"city":"Menthon-Saint-Bernard","count":1},{"gps":{"lat":"43.433333","lng":"6.633333"},"city":"Roquebrune-sur-Argens","count":7},{"gps":{"lat":"50.533333","lng":"2.616667"},"city":"Annezin","count":3},{"gps":{"lat":"","lng":""},"city":"Saint-Nazaire-les-Eymes","count":1},{"gps":{"lat":"48.55","lng":"-3.133333"},"city":"Ploumagoar","count":3},{"gps":{"lat":"45.866667","lng":"4.8"},"city":"Saint-Germain-au-Mont-d'Or","count":2},{"gps":{"lat":"45.85","lng":"4.866667"},"city":"Cailloux-sur-Fontaines","count":1},{"gps":{"lat":"48.866667","lng":"2.233333"},"city":"Suresnes","count":53},{"gps":{"lat":"45.95","lng":"3.133333"},"city":"Cellule","count":1},{"gps":{"lat":"48.766667","lng":"3.033333"},"city":"Mauperthuis","count":2},{"gps":{"lat":46.441472,"lng":11.282121},"city":"Lavis","count":1},{"gps":{"lat":"50.583333","lng":"2.883333"},"city":"Fournes-en-Weppes","count":1},{"gps":{"lat":"","lng":""},"city":"Saint-Brès","count":1},{"gps":{"lat":"49.133333","lng":"6.233333"},"city":"Vantoux","count":1},{"gps":{"lat":"47.966667","lng":"3.516667"},"city":"Migennes","count":5},{"gps":{"lat":"48.533333","lng":"7.583333"},"city":"Duppigheim","count":2},{"gps":{"lat":"46.55","lng":"1.75"},"city":"Cluis","count":1},{"gps":{"lat":"49.216667","lng":"6.016667"},"city":"Montois-la-Montagne","count":1},{"gps":{"lat":"48.316667","lng":"-2.266667"},"city":"Broons","count":1},{"gps":{"lat":41.907021,"lng":12.885786},"city":"Casape","count":2},{"gps":{"lat":"47.6","lng":"1.45"},"city":"Huisseau-sur-Cosson","count":2},{"gps":{"lat":"43.283333","lng":"3.133333"},"city":"Nissan-lez-Enserune","count":1},{"gps":{"lat":"41.916667","lng":"8.733333"},"city":"Ajaccio","count":95},{"gps":{"lat":"47.483333","lng":"6.816667"},"city":"Arbouans","count":1},{"gps":{"lat":"48.483333","lng":"-2.783333"},"city":"Ploufragan","count":2},{"gps":{"lat":"49.05","lng":"2.666667"},"city":"Longperrier","count":1},{"gps":{"lat":"43.733333","lng":"1.416667"},"city":"Bruguières","count":2},{"gps":{"lat":51.738879,"lng":6.292755},"city":"Kalkar","count":1},{"gps":{"lat":"","lng":""},"city":"Villenauxe-la-Grande","count":1},{"gps":{"lat":42.994742,"lng":12.579363},"city":"Cammoro","count":69},{"gps":{"lat":51.020718,"lng":5.921943},"city":"Selfkant","count":1},{"gps":{"lat":"48.616667","lng":"-1.3"},"city":"Ducey","count":1},{"gps":{"lat":"46.666667","lng":"-1.433333"},"city":"La Roche-sur-Yon","count":93},{"gps":{"lat":"48.4","lng":"7.633333"},"city":"Osthouse","count":1},{"gps":{"lat":"","lng":""},"city":"Jullouville","count":1},{"gps":{"lat":"48.683333","lng":"2.966667"},"city":"Rozay-en-Brie","count":1},{"gps":{"lat":49.578349,"lng":2.873407},"city":"St-Leu","count":1},{"gps":{"lat":50.779382,"lng":6.222919},"city":"Stolberg","count":1},{"gps":{"lat":40.860672,"lng":14.843984},"city":"Ischia San Michele","count":1},{"gps":{"lat":45.060735,"lng":7.923549},"city":"Ceretta di San maurizio canavese","count":2},{"gps":{"lat":"45.65","lng":"4.816667"},"city":"Vernaison","count":1},{"gps":{"lat":"47.116667","lng":"1.433333"},"city":"Luçay-le-Mâle","count":1},{"gps":{"lat":40.984266,"lng":16.621036},"city":"Bisceglie","count":6},{"gps":{"lat":"48.266667","lng":"7.4"},"city":"Châtenois","count":2},{"gps":{"lat":"50.683333","lng":"3.141667"},"city":"Villeneuve-d'Ascq","count":39},{"gps":{"lat":"44.116667","lng":"5.166667"},"city":"Bédoin","count":1},{"gps":{"lat":44.525696,"lng":11.039437},"city":"Fiorano Modenese","count":1},{"gps":{"lat":"47.816667","lng":"7.166667"},"city":"Uffholtz","count":1},{"gps":{"lat":"45.633333","lng":"4.233333"},"city":"Montrond-les-Bains","count":3},{"gps":{"lat":"49.416667","lng":"5.933333"},"city":"Aumetz","count":1},{"gps":{"lat":"47.266667","lng":"-2.433333"},"city":"Le Pouliguen","count":2},{"gps":{"lat":"49.066667","lng":"2.033333"},"city":"Boissy-l'Aillerie","count":1},{"gps":{"lat":"48.933333","lng":"8.016667"},"city":"Trimbach","count":1},{"gps":{"lat":44.525696,"lng":11.039437},"city":"Corlo di Formigine","count":1},{"gps":{"lat":"48.833333","lng":"2.116667"},"city":"Rocquencourt","count":1},{"gps":{"lat":37.587794,"lng":14.155048},"city":"Colla maffone","count":1},{"gps":{"lat":"49.433333","lng":"2.083333"},"city":"Beauvais","count":113},{"gps":{"lat":"50.433333","lng":"3.333333"},"city":"Brillon","count":1},{"gps":{"lat":"","lng":""},"city":"Andlau","count":2},{"gps":{"lat":"47.15","lng":"1.566667"},"city":"Valençay","count":1},{"gps":{"lat":"43.183333","lng":"0.966667"},"city":"Boussens","count":1},{"gps":{"lat":"48.483333","lng":"6.7"},"city":"Azerailles","count":1},{"gps":{"lat":"48.95","lng":"1.916667"},"city":"Ecquevilly","count":1},{"gps":{"lat":"48.95","lng":"2.383333"},"city":"Stains","count":7},{"gps":{"lat":"45.433333","lng":"4.316667"},"city":"Roche-la-Molière","count":1},{"gps":{"lat":"42.766667","lng":"2.566667"},"city":"Lansac","count":1},{"gps":{"lat":45.6209,"lng":9.768893},"city":"Mantello","count":1},{"gps":{"lat":"46.933333","lng":"6.35"},"city":"Doubs","count":2},{"gps":{"lat":"43.133333","lng":"5.983333"},"city":"La Valette-du-Var","count":17},{"gps":{"lat":40.073328,"lng":15.691111},"city":"San Costantino","count":1},{"gps":{"lat":"44.583333","lng":"-0.033333"},"city":"La Réole","count":2},{"gps":{"lat":"48.85","lng":"3.233333"},"city":"Rebais","count":2},{"gps":{"lat":"42.966667","lng":"1.866667"},"city":"Laroque-d'Olmes","count":2},{"gps":{"lat":41.800233,"lng":12.600524},"city":"Ciampino","count":2},{"gps":{"lat":"","lng":""},"city":"Cormelles-le-Royal","count":2},{"gps":{"lat":"48.083333","lng":"-2.3"},"city":"Mauron","count":1},{"gps":{"lat":46.441472,"lng":11.282121},"city":"Merano","count":8},{"gps":{"lat":48.171384,"lng":11.715994},"city":"Aschheim","count":1},{"gps":{"lat":"50.483333","lng":"2.716667"},"city":"Noyelles-lès-Vermelles","count":1},{"gps":{"lat":"47.516667","lng":"-1.95"},"city":"Guenrouet","count":2},{"gps":{"lat":46.441472,"lng":11.282121},"city":"Carano","count":1},{"gps":{"lat":"48.1","lng":"6.566667"},"city":"Pouxeux","count":1},{"gps":{"lat":"48.866667","lng":"1.066667"},"city":"Damville","count":1},{"gps":{"lat":"45.383333","lng":"-0.65"},"city":"Saint-Georges-des-Agoûts","count":1},{"gps":{"lat":51.26642,"lng":7.183342},"city":"Wuppertal","count":7},{"gps":{"lat":"43.666667","lng":"5.35"},"city":"Rognes","count":1},{"gps":{"lat":"50.566667","lng":"2.916667"},"city":"Wavrin","count":2},{"gps":{"lat":"48.033333","lng":"2.8"},"city":"Paucourt","count":1},{"gps":{"lat":"46.166667","lng":"4.683333"},"city":"Villié-Morgon","count":1},{"gps":{"lat":"47.85","lng":"2.383333"},"city":"Bouzy-la-Forêt","count":1},{"gps":{"lat":"48.133333","lng":"-0.55"},"city":"Montsûrs","count":1},{"gps":{"lat":"50.516667","lng":"2.533333"},"city":"Lapugnoy","count":1},{"gps":{"lat":"45.216667","lng":"5.766667"},"city":"Corenc","count":2},{"gps":{"lat":"45.1","lng":"3.483333"},"city":"Langeac","count":1},{"gps":{"lat":46.441472,"lng":11.282121},"city":"Passo Rolle","count":1},{"gps":{"lat":"46.566667","lng":"0.466667"},"city":"Sèvres-Anxaumont","count":1},{"gps":{"lat":"46.95","lng":"-1.3"},"city":"Saint-Georges-de-Montaigu","count":1},{"gps":{"lat":"48.766667","lng":"-3.133333"},"city":"Pleudaniel","count":1},{"gps":{"lat":53.239242,"lng":10.434433},"city":"Lüneburg","count":1},{"gps":{"lat":"45.583333","lng":"6.883333"},"city":"Sainte-Foy-Tarentaise","count":1},{"gps":{"lat":37.587794,"lng":14.155048},"city":"Montepellegrino","count":2},{"gps":{"lat":"45.216667","lng":"5.4"},"city":"Vinay","count":3},{"gps":{"lat":"48.716667","lng":"1.9"},"city":"Les Essarts-le-Roi","count":3},{"gps":{"lat":"48.816667","lng":"2.466667"},"city":"Joinville-le-Pont","count":11},{"gps":{"lat":"45.933333","lng":"0.25"},"city":"Chenommet","count":1},{"gps":{"lat":"47.483333","lng":"-2.35"},"city":"Férel","count":1},{"gps":{"lat":43.129043,"lng":12.287355},"city":"Corciano","count":3},{"gps":{"lat":"50.5","lng":"2.883333"},"city":"Meurchin","count":2},{"gps":{"lat":54.072012,"lng":11.793609},"city":"Kröpelin","count":1},{"gps":{"lat":"48.9","lng":"2.1"},"city":"Le Pecq","count":3},{"gps":{"lat":45.060735,"lng":7.923549},"city":"Avigliana","count":3},{"gps":{"lat":"47.516667","lng":"3.516667"},"city":"Surgy","count":1},{"gps":{"lat":"41.616667","lng":"8.983333"},"city":"Sartène","count":2},{"gps":{"lat":"49.45","lng":"6.366667"},"city":"Apach","count":1},{"gps":{"lat":"48.766667","lng":"1.2"},"city":"Nonancourt","count":2},{"gps":{"lat":50.154554,"lng":5.399211},"city":"Beyne-Heusay","count":1},{"gps":{"lat":"48.45","lng":"1.4"},"city":"Amilly","count":5},{"gps":{"lat":"48.825","lng":"2.125"},"city":"Le Chesnay","count":2},{"gps":{"lat":49.870737,"lng":10.782645},"city":"Walsdorf","count":1},{"gps":{"lat":"46.833333","lng":"2.916667"},"city":"Sancoins","count":1},{"gps":{"lat":"46.4","lng":"1.916667"},"city":"Mortroux","count":1},{"gps":{"lat":"43.916667","lng":"5.4"},"city":"Villars","count":2},{"gps":{"lat":46.199736,"lng":12.9027},"city":"Castello","count":1},{"gps":{"lat":"43.966667","lng":"5.783333"},"city":"Forcalquier","count":4},{"gps":{"lat":"48.966667","lng":"1.683333"},"city":"Magnanville","count":1},{"gps":{"lat":"43.4","lng":"3.5"},"city":"Pomérols","count":1},{"gps":{"lat":"48.766667","lng":"0.816667"},"city":"Bourth","count":1},{"gps":{"lat":"50.65","lng":"1.65"},"city":"Condette","count":1},{"gps":{"lat":"48.4","lng":"3.733333"},"city":"Marigny-le-Châtel","count":2},{"gps":{"lat":"48.716667","lng":"2.666667"},"city":"Chevry-Cossigny","count":1},{"gps":{"lat":"44.033333","lng":"-0.916667"},"city":"Morcenx","count":1},{"gps":{"lat":"50.983333","lng":"2.05"},"city":"Oye-Plage","count":1},{"gps":{"lat":"48.966667","lng":"4.016667"},"city":"Avize","count":1},{"gps":{"lat":"49.55","lng":"0.466667"},"city":"Saint-Eustache-la-Forêt","count":1},{"gps":{"lat":"49.366667","lng":"6.183333"},"city":"Manom","count":5},{"gps":{"lat":51.1833,"lng":7.08333},"city":"Solingen","count":3},{"gps":{"lat":42.227681,"lng":13.854983},"city":"Marina di Vasto","count":1},{"gps":{"lat":"48.45","lng":"2.2"},"city":"Morigny-Champigny","count":1},{"gps":{"lat":"49.483333","lng":"-1.383333"},"city":"Montebourg","count":1},{"gps":{"lat":54.032725,"lng":11.674096},"city":"Neubukow","count":1},{"gps":{"lat":"48.566667","lng":"6.5"},"city":"Hériménil","count":1},{"gps":{"lat":"45.016667","lng":"-0.133333"},"city":"Abzac","count":1},{"gps":{"lat":"45.766667","lng":"3.216667"},"city":"Lempdes","count":4},{"gps":{"lat":"45.9","lng":"5.933333"},"city":"Vallières","count":1},{"gps":{"lat":"46.2","lng":"-1.1"},"city":"Saint-Xandre","count":2},{"gps":{"lat":"","lng":""},"city":"Ferrières-en-Brie","count":3},{"gps":{"lat":"48.783333","lng":"3.3"},"city":"La Ferté-Gaucher","count":4},{"gps":{"lat":"44.116667","lng":"6.016667"},"city":"Volonne","count":2},{"gps":{"lat":"49.416667","lng":"3.516667"},"city":"Vailly-sur-Aisne","count":1},{"gps":{"lat":"48.766667","lng":"2.483333"},"city":"Bonneuil-sur-Marne","count":1},{"gps":{"lat":"47.716667","lng":"1.933333"},"city":"La Ferté-Saint-Aubin","count":1},{"gps":{"lat":"43.683333","lng":"-1.233333"},"city":"Saint-Geours-de-Maremne","count":2},{"gps":{"lat":"44.233333","lng":"2.266667"},"city":"Pradinas","count":1},{"gps":{"lat":40.543914,"lng":15.638265},"city":"Satriano di Lucania","count":2},{"gps":{"lat":"43.383333","lng":"3.45"},"city":"Florensac","count":4},{"gps":{"lat":"48.9","lng":"2.8"},"city":"Coupvray","count":1},{"gps":{"lat":"46.766667","lng":"-0.966667"},"city":"Saint-Prouant","count":1},{"gps":{"lat":51.847707,"lng":8.308573},"city":"Rheda-Wiedenbrück","count":1},{"gps":{"lat":"45.316667","lng":"1.483333"},"city":"Estivaux","count":1},{"gps":{"lat":"46.133333","lng":"-1.1"},"city":"Aytré","count":1},{"gps":{"lat":"48.583333","lng":"-3.133333"},"city":"Pabu","count":1},{"gps":{"lat":"48.133333","lng":"6.6"},"city":"Cheniménil","count":1},{"gps":{"lat":"46.083333","lng":"2.333333"},"city":"Saint-Priest","count":19},{"gps":{"lat":"44.3","lng":"4.966667"},"city":"Visan","count":1},{"gps":{"lat":50.81753,"lng":6.262996},"city":"Eschweiler","count":3},{"gps":{"lat":"48.716667","lng":"5.066667"},"city":"Ville-sur-Saulx","count":1},{"gps":{"lat":"48.583333","lng":"1.583333"},"city":"Maintenon","count":4},{"gps":{"lat":"49","lng":"2.783333"},"city":"Le Plessis-l'Evêque","count":1},{"gps":{"lat":"45.866667","lng":"4.483333"},"city":"Pontcharra-sur-Turdine","count":1},{"gps":{"lat":"46.95","lng":"4.3"},"city":"Autun","count":9},{"gps":{"lat":"45.85","lng":"0.033333"},"city":"La Chapelle","count":2},{"gps":{"lat":"48.166667","lng":"7.016667"},"city":"Plainfaing","count":1},{"gps":{"lat":"47","lng":"-0.95"},"city":"Mortagne-sur-Sèvre","count":3},{"gps":{"lat":"49.35","lng":"4.216667"},"city":"Warmeriville","count":1},{"gps":{"lat":"49.533333","lng":"0.6"},"city":"Auberville-la-Campagne","count":1},{"gps":{"lat":"48.783333","lng":"2.333333"},"city":"Cachan","count":16},{"gps":{"lat":"50.2","lng":"3.833333"},"city":"Aulnoye-Aymeries","count":2},{"gps":{"lat":"43.833333","lng":"4.5"},"city":"Redessan","count":1},{"gps":{"lat":"47.083333","lng":"-1.283333"},"city":"Clisson","count":5},{"gps":{"lat":"45.566667","lng":"5.016667"},"city":"Oytier-Saint-Oblas","count":1},{"gps":{"lat":"42.033333","lng":"8.8"},"city":"Sant'Andréa-d'Orcino","count":1},{"gps":{"lat":"48.516667","lng":"7.65"},"city":"Geispolsheim","count":1},{"gps":{"lat":"","lng":""},"city":"Perceneige","count":2},{"gps":{"lat":"43.633333","lng":"7.1"},"city":"Biot","count":5},{"gps":{"lat":"47.633333","lng":"-2.166667"},"city":"Allaire","count":1},{"gps":{"lat":"","lng":""},"city":"Val-de-Reuil","count":7},{"gps":{"lat":"48.9","lng":"2.116667"},"city":"Le Vésinet","count":2},{"gps":{"lat":"43.3","lng":"5.866667"},"city":"Signes","count":2},{"gps":{"lat":"49.933333","lng":"1.083333"},"city":"Dieppe","count":21},{"gps":{"lat":53.408457,"lng":12.379471},"city":"Satow","count":1},{"gps":{"lat":"47.483333","lng":"6.233333"},"city":"Fontenois-lès-Montbozon","count":1},{"gps":{"lat":"49.283333","lng":"2.516667"},"city":"Verneuil-en-Halatte","count":2},{"gps":{"lat":"44.6","lng":"0.366667"},"city":"Miramont-de-Guyenne","count":1},{"gps":{"lat":49.407393,"lng":6.964465},"city":"Eppelborn","count":2},{"gps":{"lat":"49.116667","lng":"-1.083333"},"city":"Saint-Lô","count":34},{"gps":{"lat":"43.783333","lng":"-0.933333"},"city":"Pontonx-sur-l'Adour","count":1},{"gps":{"lat":"49.4","lng":"4.7"},"city":"Vouziers","count":1},{"gps":{"lat":"46.45","lng":"-1.166667"},"city":"Luçon","count":2},{"gps":{"lat":"47.883333","lng":"1.833333"},"city":"La Chapelle-Saint-Mesmin","count":1},{"gps":{"lat":"45.566667","lng":"6"},"city":"Curienne","count":1},{"gps":{"lat":"48.75","lng":"-0.016667"},"city":"Argentan","count":16},{"gps":{"lat":"49.016667","lng":"2.25"},"city":"Saint-Leu-la-Forêt","count":8},{"gps":{"lat":"48.716667","lng":"7.8"},"city":"Weyersheim","count":1},{"gps":{"lat":"45.75","lng":"5.1"},"city":"Janneyrias","count":1},{"gps":{"lat":53.110891,"lng":9.404929},"city":"Rotenburg (Wümme)","count":1},{"gps":{"lat":"50.516667","lng":"2.883333"},"city":"Bauvin","count":2},{"gps":{"lat":"46.833333","lng":"-1.5"},"city":"Les Lucs-sur-Boulogne","count":1},{"gps":{"lat":51.478557,"lng":7.553365},"city":"Dinslaken","count":5},{"gps":{"lat":"48.566667","lng":"7.516667"},"city":"Ergersheim","count":1},{"gps":{"lat":48.874999,"lng":9.077848},"city":"Schwieberdingen","count":1},{"gps":{"lat":"50.7","lng":"3.133333"},"city":"Mouvaux","count":4},{"gps":{"lat":"47.35","lng":"5"},"city":"Daix","count":1},{"gps":{"lat":"48.6","lng":"2.25"},"city":"Saint-Germain-lès-Arpajon","count":3},{"gps":{"lat":"48.633333","lng":"-2.266667"},"city":"Saint-Cast-le-Guildo","count":4},{"gps":{"lat":50.154554,"lng":5.399211},"city":"Neder-Over-Heembeek","count":1},{"gps":{"lat":"49.216667","lng":"5.683333"},"city":"Rouvres-en-Woëvre","count":1},{"gps":{"lat":"49.466667","lng":"1.033333"},"city":"Déville-lès-Rouen","count":6},{"gps":{"lat":"49.85","lng":"3.283333"},"city":"Saint-Quentin","count":4},{"gps":{"lat":"47.008333","lng":"-2.225"},"city":"Noirmoutier-en-l'Ile","count":2},{"gps":{"lat":"44.1","lng":"0.916667"},"city":"Valence","count":191},{"gps":{"lat":"43.783333","lng":"6.016667"},"city":"Allemagne-en-Provence","count":1},{"gps":{"lat":"49.433333","lng":"1.033333"},"city":"Le Petit-Quevilly","count":9},{"gps":{"lat":"45.883333","lng":"0.9"},"city":"Saint-Junien","count":9},{"gps":{"lat":"49.316667","lng":"2.6"},"city":"Les Ageux","count":1},{"gps":{"lat":"48.65","lng":"2.233333"},"city":"Nozay","count":5},{"gps":{"lat":43.601097,"lng":13.213846},"city":"Morro d'Alba","count":1},{"gps":{"lat":"","lng":""},"city":"Fontenay","count":6},{"gps":{"lat":"43.4","lng":"1.566667"},"city":"Saint-Léon","count":1},{"gps":{"lat":"49.25","lng":"6.083333"},"city":"Rombas","count":3},{"gps":{"lat":"45.166667","lng":"5.65"},"city":"Seyssinet-Pariset","count":4},{"gps":{"lat":43.458654,"lng":11.13892},"city":"Signa","count":3},{"gps":{"lat":"48.266667","lng":"1.1"},"city":"Frazé","count":1},{"gps":{"lat":"42.916667","lng":"3.033333"},"city":"Leucate","count":3},{"gps":{"lat":"48.816667","lng":"2.05"},"city":"Fontenay-le-Fleury","count":1},{"gps":{"lat":"43.966667","lng":"1.333333"},"city":"Bressols","count":2},{"gps":{"lat":"44.05","lng":"2.15"},"city":"Carmaux","count":4},{"gps":{"lat":"45.358333","lng":"-1.058333"},"city":"Vendays-Montalivet","count":1},{"gps":{"lat":"","lng":""},"city":"Longué-Jumelles","count":1},{"gps":{"lat":"50.466667","lng":"2.5"},"city":"Divion","count":5},{"gps":{"lat":"","lng":""},"city":"La Redorte","count":1},{"gps":{"lat":"44.35","lng":"2.05"},"city":"Villefranche-de-Rouergue","count":7},{"gps":{"lat":"43.216667","lng":"2.416667"},"city":"Berriac","count":3},{"gps":{"lat":44.525696,"lng":11.039437},"city":"Mirabello","count":1},{"gps":{"lat":"","lng":""},"city":"Les Angles","count":6},{"gps":{"lat":"48.9","lng":"2.033333"},"city":"Chambourcy","count":3},{"gps":{"lat":50.268801,"lng":5.44633},"city":"Hotton","count":1},{"gps":{"lat":43.458654,"lng":11.13892},"city":"Cenaia","count":1},{"gps":{"lat":"48.5","lng":"-2.716667"},"city":"Langueux","count":3},{"gps":{"lat":"48.933333","lng":"2.333333"},"city":"Villeneuve-la-Garenne","count":7},{"gps":{"lat":"48.916667","lng":"6.583333"},"city":"Achain","count":1},{"gps":{"lat":"50.583333","lng":"3.166667"},"city":"Sainghin-en-Mélantois","count":1},{"gps":{"lat":"49.7","lng":"3.683333"},"city":"Dercy","count":1},{"gps":{"lat":"45.85","lng":"4.533333"},"city":"Saint-Romain-de-Popey","count":1},{"gps":{"lat":"48.666667","lng":"2.35"},"city":"Morsang-sur-Orge","count":15},{"gps":{"lat":"","lng":""},"city":"Equeurdreville-Hainneville","count":4},{"gps":{"lat":37.587794,"lng":14.155048},"city":"Dagala del re","count":5},{"gps":{"lat":43.458654,"lng":11.13892},"city":"Campo nell'Elba","count":1},{"gps":{"lat":"43.666667","lng":"-0.583333"},"city":"Hagetmau","count":2},{"gps":{"lat":37.587794,"lng":14.155048},"city":"Castelbuono","count":1},{"gps":{"lat":"48.633333","lng":"4.95"},"city":"Saint-Dizier","count":21},{"gps":{"lat":"46.4","lng":"0.716667"},"city":"Lussac-les-Châteaux","count":1},{"gps":{"lat":"46.633333","lng":"-1.866667"},"city":"Bretignolles-sur-Mer","count":2},{"gps":{"lat":"43.7","lng":"1.35"},"city":"Seilh","count":1},{"gps":{"lat":51.498011,"lng":6.85927},"city":"Oberhausen","count":5},{"gps":{"lat":"50.133333","lng":"3.416667"},"city":"Caudry","count":3},{"gps":{"lat":"51.033333","lng":"2.35"},"city":"Saint-Pol-sur-Mer","count":2},{"gps":{"lat":43.819648,"lng":7.775086},"city":"Sanremo","count":10},{"gps":{"lat":"47.616667","lng":"-3.008333"},"city":"Crach","count":1},{"gps":{"lat":"43.65","lng":"3.55"},"city":"Gignac","count":1},{"gps":{"lat":"45.933333","lng":"3.1"},"city":"Saint-Bonnet-près-Riom","count":1},{"gps":{"lat":43.629397,"lng":13.396676},"city":"Falconara Marittima","count":5},{"gps":{"lat":"48.783333","lng":"3.166667"},"city":"Marolles-en-Brie","count":3},{"gps":{"lat":"49.466667","lng":"-1.633333"},"city":"Bricquebec","count":1},{"gps":{"lat":"43.75","lng":"7.316667"},"city":"Drap","count":1},{"gps":{"lat":"46.5","lng":"-1.783333"},"city":"Les Sables-d'Olonne","count":22},{"gps":{"lat":"","lng":""},"city":"Saint-Pierre-d'Entremont","count":1},{"gps":{"lat":"48.3","lng":"-1.8"},"city":"Hédé","count":1},{"gps":{"lat":42.612701,"lng":12.546505},"city":"San Gemini","count":1},{"gps":{"lat":"43.833333","lng":"1.75"},"city":"Rabastens","count":1},{"gps":{"lat":49.445762,"lng":10.956046},"city":"Zirndorf","count":1},{"gps":{"lat":"48.766667","lng":"2.033333"},"city":"Montigny-le-Bretonneux","count":33},{"gps":{"lat":"44.1","lng":"1.083333"},"city":"Moissac","count":7},{"gps":{"lat":"46.2","lng":"6.25"},"city":"Ville-la-Grand","count":3},{"gps":{"lat":"48.083333","lng":"7.45"},"city":"Fortschwihr","count":1},{"gps":{"lat":53.597427,"lng":13.369267},"city":"Neuenkirchen","count":1},{"gps":{"lat":"44.05","lng":"2.3"},"city":"Crespin","count":2},{"gps":{"lat":41.953722,"lng":12.073465},"city":"Ladispoli","count":1},{"gps":{"lat":"45.933333","lng":"2.833333"},"city":"Saint-Georges-de-Mons","count":1},{"gps":{"lat":"47.816667","lng":"-3.333333"},"city":"Caudan","count":3},{"gps":{"lat":"","lng":""},"city":"Les Abymes","count":13},{"gps":{"lat":"48.60291","lng":"-0.77024"},"city":"Saint-Georges-de-Rouelley","count":1},{"gps":{"lat":"43.983333","lng":"4.9"},"city":"Vedène","count":2},{"gps":{"lat":"45.71243","lng":"5.1116"},"city":"Colombier-Saugnieu","count":2},{"gps":{"lat":"46.1","lng":"1.366667"},"city":"Bessines-sur-Gartempe","count":1},{"gps":{"lat":50.154554,"lng":5.399211},"city":"Liege","count":4},{"gps":{"lat":"48.9","lng":"6.066667"},"city":"Pont-à-Mousson","count":14},{"gps":{"lat":"","lng":""},"city":"Beaufou","count":1},{"gps":{"lat":"48.75","lng":"2.266667"},"city":"Verrières-le-Buisson","count":4},{"gps":{"lat":"43.416667","lng":"1.35"},"city":"Eaunes","count":2},{"gps":{"lat":46.441472,"lng":11.282121},"city":"Ala","count":3},{"gps":{"lat":"46.3","lng":"2.316667"},"city":"Soumans","count":1},{"gps":{"lat":"43.766667","lng":"0.516667"},"city":"Lavardens","count":2},{"gps":{"lat":50.92958,"lng":13.458505},"city":"Döbeln","count":1},{"gps":{"lat":"43.85","lng":"4.6"},"city":"Comps","count":3},{"gps":{"lat":"42.716667","lng":"2.6"},"city":"Bélesta","count":1},{"gps":{"lat":37.587794,"lng":14.155048},"city":"Polizzi Generosa","count":2},{"gps":{"lat":"47.8","lng":"3.566667"},"city":"Auxerre","count":90},{"gps":{"lat":"43.683333","lng":"1.316667"},"city":"Aussonne","count":1},{"gps":{"lat":"48.95","lng":"1.833333"},"city":"La Falaise","count":1},{"gps":{"lat":"46.216667","lng":"5.55"},"city":"Izernore","count":2},{"gps":{"lat":"50.433333","lng":"3.033333"},"city":"Evin-Malmaison","count":2},{"gps":{"lat":"49.5","lng":"0.933333"},"city":"Saint-Pierre-de-Varengeville","count":1},{"gps":{"lat":"49.333333","lng":"2.466667"},"city":"Liancourt","count":9},{"gps":{"lat":"44.433333","lng":"-0.216667"},"city":"Bazas","count":2},{"gps":{"lat":40.973212,"lng":14.204928},"city":"Aversa","count":18},{"gps":{"lat":"48.733333","lng":"7.716667"},"city":"Brumath","count":4},{"gps":{"lat":"","lng":""},"city":"Baie-Mahault","count":8},{"gps":{"lat":"49.3","lng":"2.45"},"city":"Laigneville","count":2},{"gps":{"lat":"49.116667","lng":"-0.55"},"city":"Missy","count":1},{"gps":{"lat":39.595001,"lng":16.517695},"city":"Corigliano Calabro","count":2},{"gps":{"lat":"47.816667","lng":"7.083333"},"city":"Thann","count":10},{"gps":{"lat":"47.483333","lng":"3.9"},"city":"Avallon","count":7},{"gps":{"lat":"47.2","lng":"4.533333"},"city":"Essey","count":1},{"gps":{"lat":"44.85","lng":"0.033333"},"city":"Lamothe-Montravel","count":1},{"gps":{"lat":49.076072,"lng":-0.579156},"city":"Landsberg am Lech","count":1},{"gps":{"lat":"47.7","lng":"-3.383333"},"city":"Larmor-Plage","count":3},{"gps":{"lat":"46.616667","lng":"4.65"},"city":"Saint-Gengoux-le-National","count":1},{"gps":{"lat":"48.666667","lng":"2.333333"},"city":"Epinay-sur-Orge","count":4},{"gps":{"lat":"47.05","lng":"-1.183333"},"city":"Boussay","count":2},{"gps":{"lat":"47.783333","lng":"7.366667"},"city":"Sausheim","count":2},{"gps":{"lat":"43.666667","lng":"-1.3"},"city":"Saint-Vincent-de-Tyrosse","count":7},{"gps":{"lat":"45.616667","lng":"5.016667"},"city":"Valencin","count":1},{"gps":{"lat":"48.45","lng":"7.55"},"city":"Meistratzheim","count":2},{"gps":{"lat":"48.9","lng":"-1.516667"},"city":"Bréhal","count":2},{"gps":{"lat":"48.7","lng":"1.183333"},"city":"Laons","count":1},{"gps":{"lat":"49.183333","lng":"-0.216667"},"city":"Sannerville","count":1},{"gps":{"lat":"50.433333","lng":"2.866667"},"city":"Noyelles-sous-Lens","count":2},{"gps":{"lat":"45.833333","lng":"1.3"},"city":"Panazol","count":4},{"gps":{"lat":"47.833333","lng":"-0.7"},"city":"Château-Gontier","count":4},{"gps":{"lat":"48.216667","lng":"-1.9"},"city":"Romillé","count":2},{"gps":{"lat":"49.266667","lng":"2.233333"},"city":"Lachapelle-Saint-Pierre","count":1},{"gps":{"lat":"46.383333","lng":"3.3"},"city":"Monétay-sur-Allier","count":1},{"gps":{"lat":"","lng":""},"city":"Marseille 1er","count":10},{"gps":{"lat":"46.65","lng":"4.866667"},"city":"Sennecey-le-Grand","count":2},{"gps":{"lat":"45.7","lng":"4.866667"},"city":"Saint-Fons","count":2},{"gps":{"lat":"48.766667","lng":"7.866667"},"city":"Bischwiller","count":5},{"gps":{"lat":"","lng":""},"city":"Crécy-la-Chapelle","count":6},{"gps":{"lat":"49.95","lng":"1.233333"},"city":"Saint-Martin-en-Campagne","count":1},{"gps":{"lat":"48.916667","lng":"2.616667"},"city":"Le Pin","count":1},{"gps":{"lat":40.835618,"lng":15.398856},"city":"Pescopagano","count":1},{"gps":{"lat":"45.633333","lng":"4.866667"},"city":"Saint-Symphorien-d'Ozon","count":1},{"gps":{"lat":"47.383333","lng":"0.65"},"city":"La Riche","count":3},{"gps":{"lat":"43.716667","lng":"5.433333"},"city":"Villelaure","count":3},{"gps":{"lat":"48.85","lng":"2.433333"},"city":"Vincennes","count":77},{"gps":{"lat":53.490981,"lng":11.280556},"city":"Bandenitz","count":1},{"gps":{"lat":"45.633333","lng":"4.383333"},"city":"Chazelles-sur-Lyon","count":1},{"gps":{"lat":"47.85","lng":"-1.133333"},"city":"Saint-Aignan-sur-Roë","count":1},{"gps":{"lat":"43.833333","lng":"0.666667"},"city":"Fleurance","count":4},{"gps":{"lat":40.984266,"lng":16.621036},"city":"Lizzano","count":1},{"gps":{"lat":"46.666667","lng":"4.366667"},"city":"Montceau-les-Mines","count":9},{"gps":{"lat":"50.95","lng":"2.2"},"city":"Bourbourg","count":1},{"gps":{"lat":"43.3","lng":"5.4"},"city":"Marseille 7e","count":3},{"gps":{"lat":"48.616667","lng":"2.4"},"city":"Courcouronnes","count":6},{"gps":{"lat":"48.433333","lng":"0.083333"},"city":"Alençon","count":1},{"gps":{"lat":"47.2","lng":"5.866667"},"city":"Dannemarie-sur-Crète","count":1},{"gps":{"lat":"46.916667","lng":"6.316667"},"city":"Houtaud","count":1},{"gps":{"lat":"45.866667","lng":"4.683333"},"city":"Lozanne","count":2},{"gps":{"lat":"45.916667","lng":"4.65"},"city":"Alix","count":1},{"gps":{"lat":38.353949,"lng":16.080603},"city":"Cittanova","count":1},{"gps":{"lat":"46.016667","lng":"6.183333"},"city":"Groisy","count":1},{"gps":{"lat":48.890885,"lng":8.702953},"city":"Pforzheim","count":3},{"gps":{"lat":"45.533333","lng":"4.616667"},"city":"Rive-de-Gier","count":5},{"gps":{"lat":"48.6","lng":"7.75"},"city":"Schiltigheim","count":22},{"gps":{"lng":"2.3561","lat":"48.8322"},"city":"Paris 13e","count":444},{"gps":{"lat":"43.3","lng":"5.4"},"city":"Marseille 3e","count":2},{"gps":{"lat":"43.3","lng":"5.4"},"city":"Marseille 4e","count":6},{"gps":{"lat":"45.733333","lng":"3.066667"},"city":"Ceyrat","count":2},{"gps":{"lat":"44.25","lng":"5.766667"},"city":"Saint-Pierre-Avez","count":1},{"gps":{"lat":"45.633333","lng":"-0.65"},"city":"Tesson","count":1},{"gps":{"lat":"49.05","lng":"2.216667"},"city":"Frépillon","count":2},{"gps":{"lat":51.953245,"lng":7.991234},"city":"Warendorf","count":1},{"gps":{"lat":"48.8","lng":"2.133333"},"city":"Versailles","count":327},{"gps":{"lat":"43.716667","lng":"5.8"},"city":"Vinon-sur-Verdon","count":2},{"gps":{"lat":"48.6","lng":"2.883333"},"city":"Mormant","count":2},{"gps":{"lat":48.453978,"lng":-2.047687},"city":"Dinan","count":19},{"gps":{"lat":"49.666667","lng":"3.366667"},"city":"La Fère","count":1},{"gps":{"lat":"48.85","lng":"1.916667"},"city":"Thiverval-Grignon","count":1},{"gps":{"lat":"47.333333","lng":"2.85"},"city":"Saint-Satur","count":1},{"gps":{"lat":"50.633333","lng":"2.966667"},"city":"Englos","count":1},{"gps":{"lat":45.6209,"lng":9.768893},"city":"Lissone","count":4},{"gps":{"lat":"49.066667","lng":"2.566667"},"city":"Vémars","count":4},{"gps":{"lat":45.716788,"lng":7.166854},"city":"Saint-Denis","count":1},{"gps":{"lat":"43.766667","lng":"7.466667"},"city":"Roquebrune-Cap-Martin","count":9},{"gps":{"lat":45.6209,"lng":9.768893},"city":"Oggiono","count":1},{"gps":{"lat":"46.816667","lng":"0.333333"},"city":"Lencloître","count":1},{"gps":{"lat":"43.783333","lng":"5.433333"},"city":"Cucuron","count":1},{"gps":{"lat":"43.45","lng":"3.416667"},"city":"Pézenas","count":10},{"gps":{"lat":"48.233333","lng":"4.466667"},"city":"Vendeuvre-sur-Barse","count":1},{"gps":{"lat":"","lng":""},"city":"Saint-Leu","count":2},{"gps":{"lat":"45.2","lng":"5.666667"},"city":"Sassenage","count":2},{"gps":{"lat":"50.283333","lng":"4.05"},"city":"Boussois","count":1},{"gps":{"lat":"46.533333","lng":"3.75"},"city":"Diou","count":1},{"gps":{"lat":"46.183333","lng":"6.216667"},"city":"Gaillard","count":4},{"gps":{"lat":49.413238,"lng":6.909135},"city":"Lebach","count":2},{"gps":{"lat":"","lng":""},"city":"Villefranche-sur-Cher","count":2},{"gps":{"lat":"47.95","lng":"-0.55"},"city":"Meslay-du-Maine","count":2},{"gps":{"lat":44.329532,"lng":9.350503},"city":"San Salvatore","count":1},{"gps":{"lat":"43.116667","lng":"0.95"},"city":"Salies-du-Salat","count":2},{"gps":{"lat":46.070016,"lng":13.240008},"city":"Udine","count":117},{"gps":{"lat":"47.216667","lng":"2.083333"},"city":"Vierzon","count":12},{"gps":{"lat":"49.05","lng":"6.583333"},"city":"Créhange","count":1},{"gps":{"lat":43.301527,"lng":5.548034},"city":"Marseille 14e","count":3},{"gps":{"lat":40.984266,"lng":16.621036},"city":"Manduria","count":1},{"gps":{"lat":"48.483333","lng":"7.683333"},"city":"Fegersheim","count":2},{"gps":{"lat":41.77715,"lng":13.341924},"city":"Vico nel Lazio","count":1},{"gps":{"lat":50.154554,"lng":5.399211},"city":"Liège","count":29},{"gps":{"lat":"49","lng":"2.466667"},"city":"Le Thillay","count":4},{"gps":{"lat":"47.7","lng":"-0.966667"},"city":"Noyant-la-Gravoyère","count":1},{"gps":{"lat":"47.633333","lng":"1.85"},"city":"Yvoy-le-Marron","count":1},{"gps":{"lat":"49.55","lng":"0.95"},"city":"Barentin","count":6},{"gps":{"lat":"49.3","lng":"2.6"},"city":"Pont-Sainte-Maxence","count":7},{"gps":{"lat":"48.366667","lng":"5.6"},"city":"Pargny-sous-Mureau","count":1},{"gps":{"lat":"45.116667","lng":"1.833333"},"city":"Neuville","count":1},{"gps":{"lat":"49.116667","lng":"2.3"},"city":"Presles","count":3},{"gps":{"lat":"44.866667","lng":"4.883333"},"city":"Portes-lès-Valence","count":2},{"gps":{"lat":"47.383333","lng":"-2.55"},"city":"Piriac-sur-Mer","count":1},{"gps":{"lat":"47.45","lng":"-0.466667"},"city":"Trélazé","count":3},{"gps":{"lat":"49.566667","lng":"0.966667"},"city":"Pavilly","count":4},{"gps":{"lat":"48.216667","lng":"4.133333"},"city":"Isle-Aumont","count":1},{"gps":{"lat":39.512267,"lng":16.285813},"city":"Bisignano","count":1},{"gps":{"lat":"43.3","lng":"-0.383333"},"city":"Jurançon","count":2},{"gps":{"lat":45.6209,"lng":9.768893},"city":"Lurano","count":1},{"gps":{"lat":"","lng":""},"city":"Anse-Bertrand","count":1},{"gps":{"lat":45.6209,"lng":9.768893},"city":"Villa Cortese","count":1},{"gps":{"lat":"49.35","lng":"1.916667"},"city":"Porcheux","count":1},{"gps":{"lat":"45.383333","lng":"5.25"},"city":"La Côte-Saint-André","count":5},{"gps":{"lat":"45.566667","lng":"6.15"},"city":"Saint-Pierre-d'Albigny","count":1},{"gps":{"lat":"49.266667","lng":"2.466667"},"city":"Nogent-sur-Oise","count":6},{"gps":{"lat":"43.75","lng":"5.2"},"city":"Mérindol","count":1},{"gps":{"lat":40.860672,"lng":14.843984},"city":"Baia Domizia","count":2},{"gps":{"lat":48.235823,"lng":9.644179},"city":"Munderkingen","count":1},{"gps":{"lat":42.546527,"lng":11.904755},"city":"Capodimonte","count":1},{"gps":{"lat":40.500571,"lng":16.081953},"city":"Giuliano","count":4},{"gps":{"lat":"","lng":""},"city":"Evette-Salbert","count":1},{"gps":{"lat":"46","lng":"3.133333"},"city":"Artonne","count":1},{"gps":{"lat":"47.316667","lng":"5.116667"},"city":"Quetigny","count":2},{"gps":{"lat":"","lng":""},"city":"Remoncourt","count":2},{"gps":{"lat":"48.95","lng":"4.383333"},"city":"Saint-Memmie","count":2},{"gps":{"lat":"48.583333","lng":"4.433333"},"city":"Corbeil","count":4},{"gps":{"lat":"44.816667","lng":"-0.333333"},"city":"Croignon","count":1},{"gps":{"lat":"44.05","lng":"4.433333"},"city":"Saint-Quentin-la-Poterie","count":1},{"gps":{"lat":"47.283333","lng":"5.066667"},"city":"Longvic","count":2},{"gps":{"lat":43.301527,"lng":5.548034},"city":"Marseille 10e","count":6},{"gps":{"lat":"46.033333","lng":"4.033333"},"city":"Riorges","count":2},{"gps":{"lat":"49.483333","lng":"0.883333"},"city":"Duclair","count":1},{"gps":{"lat":"50.333333","lng":"3.3"},"city":"Abscon","count":1},{"gps":{"lat":"47.5","lng":"0.583333"},"city":"Semblançay","count":1},{"gps":{"lat":"46.066667","lng":"6.6"},"city":"Cluses","count":21},{"gps":{"lat":"","lng":""},"city":"Livry-Louvercy","count":2},{"gps":{"lat":40.984266,"lng":16.621036},"city":"Binetto","count":1},{"gps":{"lat":"43.716667","lng":"7.4"},"city":"Cap-d'Ail","count":5},{"gps":{"lat":"43.8","lng":"2.95"},"city":"Fayet","count":1},{"gps":{"lat":"49.333333","lng":"2.433333"},"city":"Rantigny","count":1},{"gps":{"lat":"","lng":""},"city":"La Salvetat-Saint-Gilles","count":3},{"gps":{"lat":"50.533333","lng":"3.166667"},"city":"Templeuve","count":4},{"gps":{"lat":"49.2","lng":"6"},"city":"Sainte-Marie-aux-Chênes","count":4},{"gps":{"lat":"","lng":""},"city":"Pontfaverger-Moronvilliers","count":2},{"gps":{"lat":49.029395,"lng":7.969322},"city":"Altenstadt","count":1},{"gps":{"lat":"44.366667","lng":"0.533333"},"city":"Le Temple-sur-Lot","count":1},{"gps":{"lat":"49.316667","lng":"0.033333"},"city":"Blonville-sur-Mer","count":1},{"gps":{"lat":"45.983333","lng":"-1.333333"},"city":"Saint-Georges-d'Oléron","count":2},{"gps":{"lat":"48.466667","lng":"2"},"city":"Richarville","count":1},{"gps":{"lat":"45.3","lng":"-0.616667"},"city":"Saint-Ciers-sur-Gironde","count":1},{"gps":{"lat":"45.833333","lng":"4.966667"},"city":"Saint-Maurice-de-Beynost","count":1},{"gps":{"lat":"44.74288","lng":"-1.1"},"city":"Andernos-les-Bains","count":7},{"gps":{"lat":"44.816667","lng":"4.583333"},"city":"Saint-Sauveur-de-Montagut","count":1},{"gps":{"lng":"2.3984","lat":"48.8646"},"city":"Paris 20e","count":424},{"gps":{"lat":"48.766667","lng":"2.266667"},"city":"Châtenay-Malabry","count":18},{"gps":{"lat":"50.766667","lng":"1.633333"},"city":"Wimille","count":1},{"gps":{"lat":"45.866667","lng":"-0.966667"},"city":"Saint-Agnant","count":1},{"gps":{"lat":52.357886,"lng":13.410256},"city":"Mahlow","count":2},{"gps":{"lat":"48.816667","lng":"3.016667"},"city":"Pommeuse","count":1},{"gps":{"lat":"","lng":""},"city":"Beaumont","count":6},{"gps":{"lat":"44.7","lng":"-0.483333"},"city":"Ayguemorte-les-Graves","count":1},{"gps":{"lat":"43.016667","lng":"0.8"},"city":"Aspet","count":1},{"gps":{"lat":"48.05","lng":"7.3"},"city":"Eguisheim","count":1},{"gps":{"lat":"46.2","lng":"3.433333"},"city":"Saint-Germain-des-Fossés","count":1},{"gps":{"lat":"","lng":""},"city":"Chassy","count":1},{"gps":{"lat":"47.283333","lng":"0.733333"},"city":"Veigné","count":3},{"gps":{"lat":"45.65","lng":"0.15"},"city":"Angoulême","count":13},{"gps":{"lat":"","lng":""},"city":"Saumane-de-Vaucluse","count":1},{"gps":{"lat":"50.516667","lng":"1.583333"},"city":"Le Touquet-Paris-Plage","count":6},{"gps":{"lat":"","lng":""},"city":"Champfleury","count":1},{"gps":{"lat":"43.4","lng":"-0.383333"},"city":"Sauvagnon","count":1},{"gps":{"lat":42.052522,"lng":12.618678},"city":"Monterotondo","count":4},{"gps":{"lat":"49.083333","lng":"1.483333"},"city":"Vernon","count":28},{"gps":{"lat":45.828478,"lng":13.209268},"city":"San Giorgio di Nogaro","count":1},{"gps":{"lat":51.705448,"lng":9.997278},"city":"Northeim","count":1},{"gps":{"lat":"42.666667","lng":"2.616667"},"city":"Ille-sur-Têt","count":2},{"gps":{"lat":"45.9","lng":"4.833333"},"city":"Genay","count":3},{"gps":{"lat":"47.616667","lng":"-2.533333"},"city":"Lauzach","count":1},{"gps":{"lat":"48.266667","lng":"7.45"},"city":"Sélestat","count":30},{"gps":{"lat":"49.683333","lng":"1.4"},"city":"Massy","count":52},{"gps":{"lat":"42.516667","lng":"3.116667"},"city":"Port-Vendres","count":2},{"gps":{"lat":"48.883333","lng":"2.466667"},"city":"Noisy-le-Sec","count":2},{"gps":{"lat":"45.866667","lng":"5.416667"},"city":"Souclin","count":1},{"gps":{"lat":"48.95","lng":"3.133333"},"city":"La Ferté-sous-Jouarre","count":11},{"gps":{"lat":"46.016667","lng":"2.283333"},"city":"Champagnat","count":2},{"gps":{"lat":"48.516667","lng":"3.716667"},"city":"Romilly-sur-Seine","count":1},{"gps":{"lat":44.525696,"lng":11.039437},"city":"Rio Saliceto","count":2},{"gps":{"lat":"","lng":""},"city":"Boulazac","count":1},{"gps":{"lat":"48.1","lng":"4.95"},"city":"Braux-le-Châtel","count":1},{"gps":{"lat":"49.7","lng":"4.95"},"city":"Sedan","count":19},{"gps":{"lat":"50.4","lng":"1.966667"},"city":"Contes","count":4},{"gps":{"lat":"45.95","lng":"-1.316667"},"city":"Saint-Pierre-d'Oléron","count":2},{"gps":{"lat":45.6209,"lng":9.768893},"city":"Albate","count":5},{"gps":{"lat":52.288105,"lng":8.916885},"city":"Minden","count":1},{"gps":{"lat":"43.383333","lng":"5.583333"},"city":"Peypin","count":4},{"gps":{"lat":"43.5","lng":"6.483333"},"city":"Trans-en-Provence","count":6},{"gps":{"lat":"49.366667","lng":"2.233333"},"city":"Berthecourt","count":1},{"gps":{"lat":"45.583333","lng":"-0.55"},"city":"Pons","count":3},{"gps":{"lat":"48.7","lng":"2.333333"},"city":"Morangis","count":5},{"gps":{"lat":"46.8","lng":"4.433333"},"city":"Le Creusot","count":16},{"gps":{"lat":"48.5","lng":"2.8"},"city":"Le Châtelet-en-Brie","count":5},{"gps":{"lat":"48.55","lng":"6.4"},"city":"Blainville-sur-l'Eau","count":2},{"gps":{"lat":"43.35","lng":"1.266667"},"city":"Montaut","count":1},{"gps":{"lat":"43.1","lng":"5.883333"},"city":"La Seyne-sur-Mer","count":3},{"gps":{"lat":44.477762,"lng":8.70263},"city":"Oneglia","count":1},{"gps":{"lat":"48.816667","lng":"2.05"},"city":"Fontenay-le-Fleury","count":7},{"gps":{"lat":"","lng":""},"city":"Avricourt","count":1},{"gps":{"lat":"49.316667","lng":"0.55"},"city":"Campigny","count":1},{"gps":{"lat":"50.483333","lng":"3.016667"},"city":"Libercourt","count":4},{"gps":{"lat":"43.65","lng":"-0.966667"},"city":"Mimbaste","count":1},{"gps":{"lat":45.756277,"lng":9.072639},"city":"Casnate con Bernate","count":1},{"gps":{"lat":"47.55","lng":"2.45"},"city":"Argent-sur-Sauldre","count":1},{"gps":{"lat":44.008227,"lng":8.163951},"city":"Alassio","count":5},{"gps":{"lat":"44.1","lng":"0.933333"},"city":"Pommevic","count":1},{"gps":{"lat":"49.933333","lng":"4.683333"},"city":"Anchamps","count":1},{"gps":{"lat":"49.566667","lng":"0.483333"},"city":"Bolbec","count":9},{"gps":{"lat":"49.116667","lng":"2.233333"},"city":"L'Isle-Adam","count":24},{"gps":{"lat":"49.683333","lng":"2.233333"},"city":"Bonneuil-les-Eaux","count":1},{"gps":{"lat":"47.383333","lng":"6.266667"},"city":"La Bretenière","count":1},{"gps":{"lat":40.549303,"lng":14.243534},"city":"Capri","count":1},{"gps":{"lat":48.8426,"lng":2.204531},"city":"St-Cloud","count":1},{"gps":{"lat":"49.1","lng":"0.6"},"city":"Bernay","count":11},{"gps":{"lat":"48.516667","lng":"2.216667"},"city":"Chamarande","count":2},{"gps":{"lat":"43.333333","lng":"-1.741667"},"city":"Biriatou","count":1},{"gps":{"lat":48.856506,"lng":2.352133},"city":"Paris","count":8},{"gps":{"lat":"47.333333","lng":"2.833333"},"city":"Sancerre","count":1},{"gps":{"lat":"48.083333","lng":"-4.05"},"city":"Landrévarzec","count":1},{"gps":{"lat":"43.683333","lng":"0.816667"},"city":"Blanquefort","count":8},{"gps":{"lat":"50.75","lng":"3.15"},"city":"Neuville-en-Ferrain","count":2},{"gps":{"lat":"48.683333","lng":"6.15"},"city":"Laxou","count":3},{"gps":{"lat":"43.566667","lng":"3.95"},"city":"Pérols","count":3},{"gps":{"lat":"47.95","lng":"2.05"},"city":"Vennecy","count":1},{"gps":{"lat":"49.066667","lng":"2.066667"},"city":"Osny","count":7},{"gps":{"lat":"48.7","lng":"2.05"},"city":"Chevreuse","count":5},{"gps":{"lat":"44.066667","lng":"0.666667"},"city":"Astaffort","count":1},{"gps":{"lat":"46.833333","lng":"1.7"},"city":"Déols","count":1},{"gps":{"lat":50.154554,"lng":5.399211},"city":"Waterloo","count":6},{"gps":{"lat":"48.85","lng":"-0.666667"},"city":"Vassy","count":1},{"gps":{"lat":"45.683333","lng":"4.633333"},"city":"Thurins","count":3},{"gps":{"lat":"49.133333","lng":"0.566667"},"city":"Courbépine","count":1},{"gps":{"lat":"43.566667","lng":"1.733333"},"city":"Prunet","count":1},{"gps":{"lat":"44.016667","lng":"-0.916667"},"city":"Garrosse","count":1},{"gps":{"lat":"49.333333","lng":"0.35"},"city":"Beuzeville","count":2},{"gps":{"lat":"48.283333","lng":"3.2"},"city":"Pont-sur-Yonne","count":4},{"gps":{"lat":"47.216667","lng":"6.816667"},"city":"Charquemont","count":1},{"gps":{"lat":"47.833333","lng":"0.483333"},"city":"Saint-Vincent-du-Lorouër","count":1},{"gps":{"lat":"46.983333","lng":"3.166667"},"city":"Nevers","count":69},{"gps":{"lat":42.965916,"lng":12.490236},"city":"Papiano","count":1},{"gps":{"lat":"","lng":""},"city":"Marly","count":2},{"gps":{"lat":45.060735,"lng":7.923549},"city":"Fara Novarese","count":1},{"gps":{"lat":"49.066667","lng":"7.016667"},"city":"Woustviller","count":1},{"gps":{"lat":"48.433333","lng":"0.083333"},"city":"Alençon","count":41},{"gps":{"lat":"49.033333","lng":"2.5"},"city":"Louvres","count":11},{"gps":{"lat":"45.55","lng":"0.05"},"city":"Claix","count":3},{"gps":{"lat":44.510232,"lng":8.885047},"city":"Campomorone","count":1},{"gps":{"lat":"49.55","lng":"0.483333"},"city":"Gruchet-le-Valasse","count":1},{"gps":{"lat":"49.3","lng":"-1.233333"},"city":"Saint-Hilaire-Petitville","count":1},{"gps":{"lat":"43.65","lng":"5.583333"},"city":"Peyrolles-en-Provence","count":1},{"gps":{"lat":42.875956,"lng":12.744258},"city":"Trevi","count":1},{"gps":{"lat":"45.833333","lng":"5.1"},"city":"Balan","count":1},{"gps":{"lat":"46.566667","lng":"3.35"},"city":"Yzeure","count":8},{"gps":{"lat":"","lng":""},"city":"Montville","count":2},{"gps":{"lat":"43.383333","lng":"-1.666667"},"city":"Saint-Jean-de-Luz","count":13},{"gps":{"lat":"50.516667","lng":"3.016667"},"city":"Phalempin","count":1},{"gps":{"lat":"48.55","lng":"2.116667"},"city":"Saint-Chéron","count":5},{"gps":{"lat":52.374478,"lng":9.738553},"city":"Hannover","count":8},{"gps":{"lat":"48.716667","lng":"2.5"},"city":"Yerres","count":16},{"gps":{"lat":"43.35","lng":"5.466667"},"city":"Plan-de-Cuques","count":7},{"gps":{"lat":43.602662,"lng":13.324571},"city":"Chiaravalle","count":2},{"gps":{"lat":45.6209,"lng":9.768893},"city":"Erba","count":1},{"gps":{"lat":"","lng":""},"city":"Saint-Père-sur-Loire","count":1},{"gps":{"lat":"43.583333","lng":"7.05"},"city":"Vallauris","count":18},{"gps":{"lat":"45.933333","lng":"6.1"},"city":"Meythet","count":2},{"gps":{"lat":54.10691,"lng":10.811971},"city":"Neustadt in Holstein","count":1},{"gps":{"lat":"43.783333","lng":"4.183333"},"city":"Calvisson","count":2},{"gps":{"lat":"49.4","lng":"3.116667"},"city":"Vic-sur-Aisne","count":3},{"gps":{"lat":"47.366667","lng":"-1.2"},"city":"Saint-Géréon","count":1},{"gps":{"lat":46.441472,"lng":11.282121},"city":"Avio","count":1},{"gps":{"lat":44.525696,"lng":11.039437},"city":"Roccabianca","count":1},{"gps":{"lat":45.060735,"lng":7.923549},"city":"Villanova Mondovì","count":1},{"gps":{"lat":"49.066667","lng":"7.066667"},"city":"Neufgrange","count":1},{"gps":{"lat":40.984266,"lng":16.621036},"city":"San Vito dei Normanni","count":1},{"gps":{"lat":"46.133333","lng":"5.783333"},"city":"Châtillon-en-Michaille","count":1},{"gps":{"lng":"2.3822","lat":"48.8817"},"city":"Paris 19e","count":11},{"gps":{"lat":"48.97529","lng":"8.17583"},"city":"Lauterbourg","count":2},{"gps":{"lat":"","lng":""},"city":"La Mure","count":2},{"gps":{"lat":45.88142,"lng":12.714315},"city":"Azzano Decimo","count":3},{"gps":{"lat":"48.733333","lng":"2.45"},"city":"Villeneuve-Saint-Georges","count":11},{"gps":{"lat":"47.75","lng":"-3.366667"},"city":"Lorient","count":161},{"gps":{"lat":"43.75","lng":"4.95"},"city":"Eygalières","count":1},{"gps":{"lat":40.639206,"lng":14.418237},"city":"Meta","count":2},{"gps":{"lat":"49.333333","lng":"1.1"},"city":"Oissel","count":6},{"gps":{"lat":"44.633333","lng":"-1.066667"},"city":"Gujan-Mestras","count":15},{"gps":{"lat":46.555628,"lng":15.64477},"city":"Marburg","count":1},{"gps":{"lat":"48.35","lng":"-1.2"},"city":"Fougères","count":17},{"gps":{"lat":"44.366667","lng":"5.566667"},"city":"Sorbiers","count":2},{"gps":{"lat":"46.9","lng":"6.366667"},"city":"Pontarlier","count":22},{"gps":{"lat":40.090787,"lng":9.036748},"city":"Sinnai","count":5},{"gps":{"lat":"48.716667","lng":"2.366667"},"city":"Paray-Vieille-Poste","count":7},{"gps":{"lat":40.783303,"lng":14.755728},"city":"Mercato San Severino","count":3},{"gps":{"lat":"49.466667","lng":"2.05"},"city":"Fouquenies","count":2},{"gps":{"lat":"47.933333","lng":"6.666667"},"city":"Rupt-sur-Moselle","count":1},{"gps":{"lat":43.772336,"lng":1.293192},"city":"Grenade","count":3},{"gps":{"lat":"47.566667","lng":"6.583333"},"city":"Granges-le-Bourg","count":1},{"gps":{"lat":"48.483333","lng":"7.483333"},"city":"Bischoffsheim","count":1},{"gps":{"lat":"50.116667","lng":"3.466667"},"city":"Inchy","count":1},{"gps":{"lat":"43.566667","lng":"7.016667"},"city":"Le Cannet","count":39},{"gps":{"lat":"49.266667","lng":"-0.7"},"city":"Bayeux","count":19},{"gps":{"lat":"46.783333","lng":"-0.833333"},"city":"Pouzauges","count":3},{"gps":{"lat":"45.7","lng":"3.183333"},"city":"Orcet","count":1},{"gps":{"lat":"48.9","lng":"2.566667"},"city":"Montfermeil","count":7},{"gps":{"lat":"43.6","lng":"1.25"},"city":"Léguevin","count":3},{"gps":{"lat":48.424743,"lng":10.878712},"city":"Gersthofen","count":1},{"gps":{"lat":"50.633333","lng":"2.4"},"city":"Aire-sur-la-Lys","count":4},{"gps":{"lat":"45.766667","lng":"5.683333"},"city":"Belley","count":9},{"gps":{"lat":"43.4","lng":"3.683333"},"city":"Sète","count":37},{"gps":{"lat":"50.55","lng":"2.866667"},"city":"Marquillies","count":1},{"gps":{"lat":44.575461,"lng":10.455391},"city":"Comacchio","count":3},{"gps":{"lat":"49.55","lng":"1.716667"},"city":"Gancourt-Saint-Etienne","count":1},{"gps":{"lat":"49.15","lng":"1.983333"},"city":"Marines","count":4},{"gps":{"lat":"45.7","lng":"-0.333333"},"city":"Cognac","count":31},{"gps":{"lat":"48.616667","lng":"1.683333"},"city":"Epernon","count":7},{"gps":{"lat":"47.716667","lng":"7.166667"},"city":"Burnhaupt-le-Bas","count":2},{"gps":{"lat":44.525696,"lng":11.039437},"city":"Formigine","count":6},{"gps":{"lat":"46.216667","lng":"6.416667"},"city":"Boëge","count":1},{"gps":{"lat":"43.383333","lng":"6.316667"},"city":"Le Luc","count":2},{"gps":{"lat":"45.416667","lng":"0.916667"},"city":"Thiviers","count":3},{"gps":{"lat":"49.133333","lng":"2.266667"},"city":"Mours","count":1},{"gps":{"lat":43.458654,"lng":11.13892},"city":"Cecina","count":4},{"gps":{"lat":"44.566667","lng":"6.366667"},"city":"Saint-Apollinaire","count":1},{"gps":{"lat":"47.8","lng":"-3.283333"},"city":"Hennebont","count":14},{"gps":{"lat":53.753249,"lng":9.652456},"city":"Elmshorn","count":1},{"gps":{"lat":"48.433333","lng":"-4.4"},"city":"Guipavas","count":8},{"gps":{"lat":"43.383333","lng":"5.166667"},"city":"Châteauneuf-les-Martigues","count":8},{"gps":{"lat":"48.633333","lng":"2.333333"},"city":"Sainte-Geneviève-des-Bois","count":40},{"gps":{"lat":"45.916667","lng":"5.3"},"city":"Leyment","count":1},{"gps":{"lat":"48.416667","lng":"3.45"},"city":"Traînel","count":2},{"gps":{"lat":"42.966667","lng":"1.6"},"city":"Foix","count":10},{"gps":{"lat":"50.15","lng":"2.35"},"city":"Doullens","count":2},{"gps":{"lat":"44.916667","lng":"-0.433333"},"city":"Saint-Loubès","count":2},{"gps":{"lat":"48.2","lng":"-2.05"},"city":"Montauban-de-Bretagne","count":1},{"gps":{"lat":45.6209,"lng":9.768893},"city":"Crema","count":5},{"gps":{"lat":40.984266,"lng":16.621036},"city":"Grottaglie","count":5},{"gps":{"lat":49.755734,"lng":6.640206},"city":"Trier","count":1},{"gps":{"lat":"45.833333","lng":"3.083333"},"city":"Blanzat","count":1},{"gps":{"lat":"47.516667","lng":"6.9"},"city":"Fesches-le-Châtel","count":2},{"gps":{"lat":"49.766667","lng":"2.916667"},"city":"Nesle","count":1},{"gps":{"lat":"48.566667","lng":"2.5"},"city":"Morsang-sur-Seine","count":2},{"gps":{"lat":"48.216667","lng":"-1.75"},"city":"La Mézière","count":2},{"gps":{"lat":"48.833333","lng":"2.416667"},"city":"Saint-Mandé","count":14},{"gps":{"lat":"50.433333","lng":"2.716667"},"city":"Bully-les-Mines","count":6},{"gps":{"lat":"48.116667","lng":"1.866667"},"city":"Dambron","count":1},{"gps":{"lat":41.175219,"lng":14.641335},"city":"Vitulano","count":1},{"gps":{"lat":"48.233333","lng":"-0.866667"},"city":"Chailland","count":1},{"gps":{"lat":50.641949,"lng":4.659539},